{
"type": "FeatureCollection",
"name": "stops_with_poi",
"crs": { "type": "name", "properties": { "name": "urn:ogc:def:crs:OGC:1.3:CRS84" } },
"features": [
{ "type": "Feature", "properties": { "stop_id": "0001RLW", "stop_name": "Railways", "stop_lat": -1.290884, "stop_lon": 36.828242, "location_type": 0, "parent_station": null, "poi_count_500m": 3508 }, "geometry": { "type": "Point", "coordinates": [ 36.828242, -1.290884 ] } },
{ "type": "Feature", "properties": { "stop_id": "010044G", "stop_name": "44 Githurai", "stop_lat": -1.195514, "stop_lon": 36.902695, "location_type": null, "parent_station": null, "poi_count_500m": 2 }, "geometry": { "type": "Point", "coordinates": [ 36.902695, -1.195514 ] } },
{ "type": "Feature", "properties": { "stop_id": "0100AAA", "stop_name": "Sahala", "stop_lat": -1.206232, "stop_lon": 36.790681, "location_type": null, "parent_station": null, "poi_count_500m": 6 }, "geometry": { "type": "Point", "coordinates": [ 36.790681, -1.206232 ] } },
{ "type": "Feature", "properties": { "stop_id": "0100AAE", "stop_name": "Aga Khan Hospital Entrance", "stop_lat": -1.26177, "stop_lon": 36.82218, "location_type": null, "parent_station": null, "poi_count_500m": 169 }, "geometry": { "type": "Point", "coordinates": [ 36.82218, -1.26177 ] } },
{ "type": "Feature", "properties": { "stop_id": "0100ACP", "stop_name": "PCEA", "stop_lat": -1.184213, "stop_lon": 36.907515, "location_type": null, "parent_station": null, "poi_count_500m": 4 }, "geometry": { "type": "Point", "coordinates": [ 36.907515, -1.184213 ] } },
{ "type": "Feature", "properties": { "stop_id": "0100AEI", "stop_name": "Nyari Police", "stop_lat": -1.225512, "stop_lon": 36.788042, "location_type": null, "parent_station": null, "poi_count_500m": 2 }, "geometry": { "type": "Point", "coordinates": [ 36.788042, -1.225512 ] } },
{ "type": "Feature", "properties": { "stop_id": "0100AEL", "stop_name": "Membley Stage", "stop_lat": -1.160297, "stop_lon": 36.922367, "location_type": null, "parent_station": null, "poi_count_500m": 0 }, "geometry": { "type": "Point", "coordinates": [ 36.922367, -1.160297 ] } },
{ "type": "Feature", "properties": { "stop_id": "0100AKA", "stop_name": "Chamoka", "stop_lat": -1.218551, "stop_lon": 36.774437, "location_type": null, "parent_station": null, "poi_count_500m": 10 }, "geometry": { "type": "Point", "coordinates": [ 36.774437, -1.218551 ] } },
{ "type": "Feature", "properties": { "stop_id": "0100AL2", "stop_name": "Lane 26", "stop_lat": -1.202838, "stop_lon": 36.769285, "location_type": null, "parent_station": null, "poi_count_500m": 0 }, "geometry": { "type": "Point", "coordinates": [ 36.769285, -1.202838 ] } },
{ "type": "Feature", "properties": { "stop_id": "0100AMY", "stop_name": "Kwa Nyama", "stop_lat": -1.204494, "stop_lon": 36.786014, "location_type": null, "parent_station": null, "poi_count_500m": 24 }, "geometry": { "type": "Point", "coordinates": [ 36.786014, -1.204494 ] } },
{ "type": "Feature", "properties": { "stop_id": "0100ANJ", "stop_name": "Kwa Kiwanja", "stop_lat": -1.171676, "stop_lon": 36.916509, "location_type": null, "parent_station": null, "poi_count_500m": 4 }, "geometry": { "type": "Point", "coordinates": [ 36.916509, -1.171676 ] } },
{ "type": "Feature", "properties": { "stop_id": "0100A.P", "stop_name": "A.P.", "stop_lat": -1.178289, "stop_lon": 36.91196, "location_type": null, "parent_station": null, "poi_count_500m": 2 }, "geometry": { "type": "Point", "coordinates": [ 36.91196, -1.178289 ] } },
{ "type": "Feature", "properties": { "stop_id": "0100APC", "stop_name": "PCEA", "stop_lat": -1.188633, "stop_lon": 36.737222, "location_type": null, "parent_station": null, "poi_count_500m": 0 }, "geometry": { "type": "Point", "coordinates": [ 36.737222, -1.188633 ] } },
{ "type": "Feature", "properties": { "stop_id": "0100ARG", "stop_name": "Arya Girls' Secondary School", "stop_lat": -1.26081, "stop_lon": 36.81997, "location_type": null, "parent_station": null, "poi_count_500m": 134 }, "geometry": { "type": "Point", "coordinates": [ 36.81997, -1.26081 ] } },
{ "type": "Feature", "properties": { "stop_id": "0100ARI", "stop_name": "Kwa Daktari", "stop_lat": -1.185329, "stop_lon": 36.733381, "location_type": null, "parent_station": null, "poi_count_500m": 0 }, "geometry": { "type": "Point", "coordinates": [ 36.733381, -1.185329 ] } },
{ "type": "Feature", "properties": { "stop_id": "0100ASD", "stop_name": "Ambassadors", "stop_lat": -1.19794, "stop_lon": 36.75537, "location_type": null, "parent_station": null, "poi_count_500m": 0 }, "geometry": { "type": "Point", "coordinates": [ 36.75537, -1.19794 ] } },
{ "type": "Feature", "properties": { "stop_id": "0100ASW", "stop_name": "Car Wash", "stop_lat": -1.204816, "stop_lon": 36.782559, "location_type": null, "parent_station": null, "poi_count_500m": 30 }, "geometry": { "type": "Point", "coordinates": [ 36.782559, -1.204816 ] } },
{ "type": "Feature", "properties": { "stop_id": "0100AWA", "stop_name": "Wataalam", "stop_lat": -1.149612, "stop_lon": 36.947408, "location_type": null, "parent_station": null, "poi_count_500m": 15 }, "geometry": { "type": "Point", "coordinates": [ 36.947408, -1.149612 ] } },
{ "type": "Feature", "properties": { "stop_id": "0100BKH", "stop_name": "Bypass Stage Kiambu", "stop_lat": -1.215781, "stop_lon": 36.835061, "location_type": null, "parent_station": null, "poi_count_500m": 30 }, "geometry": { "type": "Point", "coordinates": [ 36.835061, -1.215781 ] } },
{ "type": "Feature", "properties": { "stop_id": "0100BKK", "stop_name": "Kabuku", "stop_lat": -1.154729, "stop_lon": 36.674563, "location_type": null, "parent_station": null, "poi_count_500m": 4 }, "geometry": { "type": "Point", "coordinates": [ 36.674563, -1.154729 ] } },
{ "type": "Feature", "properties": { "stop_id": "0100BLD", "stop_name": "God's Ability", "stop_lat": -1.202672, "stop_lon": 36.768719, "location_type": null, "parent_station": null, "poi_count_500m": 0 }, "geometry": { "type": "Point", "coordinates": [ 36.768719, -1.202672 ] } },
{ "type": "Feature", "properties": { "stop_id": "0100CAR", "stop_name": "Kwa Machiri", "stop_lat": -1.173731, "stop_lon": 36.712964, "location_type": null, "parent_station": null, "poi_count_500m": 0 }, "geometry": { "type": "Point", "coordinates": [ 36.712964, -1.173731 ] } },
{ "type": "Feature", "properties": { "stop_id": "0100CBR", "stop_name": "Cooperative Bank Ruaka", "stop_lat": -1.20678, "stop_lon": 36.78464, "location_type": null, "parent_station": null, "poi_count_500m": 24 }, "geometry": { "type": "Point", "coordinates": [ 36.78464, -1.20678 ] } },
{ "type": "Feature", "properties": { "stop_id": "0100CCD", "stop_name": "Coca Cola Depot", "stop_lat": -1.25983, "stop_lon": 36.8176, "location_type": null, "parent_station": null, "poi_count_500m": 142 }, "geometry": { "type": "Point", "coordinates": [ 36.8176, -1.25983 ] } },
{ "type": "Feature", "properties": { "stop_id": "0100CHE", "stop_name": "Commission Of Higher Education", "stop_lat": -1.227579, "stop_lon": 36.797994, "location_type": null, "parent_station": null, "poi_count_500m": 16 }, "geometry": { "type": "Point", "coordinates": [ 36.797994, -1.227579 ] } },
{ "type": "Feature", "properties": { "stop_id": "0100CHL", "stop_name": "Chantilly School", "stop_lat": -1.181032, "stop_lon": 36.762044, "location_type": null, "parent_station": null, "poi_count_500m": 4 }, "geometry": { "type": "Point", "coordinates": [ 36.762044, -1.181032 ] } },
{ "type": "Feature", "properties": { "stop_id": "0100CTC", "stop_name": "Christco", "stop_lat": -1.19626, "stop_lon": 36.75305, "location_type": null, "parent_station": null, "poi_count_500m": 0 }, "geometry": { "type": "Point", "coordinates": [ 36.75305, -1.19626 ] } },
{ "type": "Feature", "properties": { "stop_id": "0100CTR", "stop_name": "Doctor's Park", "stop_lat": -1.261466, "stop_lon": 36.821647, "location_type": null, "parent_station": null, "poi_count_500m": 183 }, "geometry": { "type": "Point", "coordinates": [ 36.821647, -1.261466 ] } },
{ "type": "Feature", "properties": { "stop_id": "0100DPA", "stop_name": "Delta Petrol Station Ruaka/Border", "stop_lat": -1.208925, "stop_lon": 36.787827, "location_type": null, "parent_station": null, "poi_count_500m": 12 }, "geometry": { "type": "Point", "coordinates": [ 36.787827, -1.208925 ] } },
{ "type": "Feature", "properties": { "stop_id": "0100EIE", "stop_name": "Mfereji", "stop_lat": -1.20309, "stop_lon": 36.770237, "location_type": null, "parent_station": null, "poi_count_500m": 0 }, "geometry": { "type": "Point", "coordinates": [ 36.770237, -1.20309 ] } },
{ "type": "Feature", "properties": { "stop_id": "0100EIL", "stop_name": "Milele", "stop_lat": -1.200816, "stop_lon": 36.762284, "location_type": null, "parent_station": null, "poi_count_500m": 4 }, "geometry": { "type": "Point", "coordinates": [ 36.762284, -1.200816 ] } },
{ "type": "Feature", "properties": { "stop_id": "0100EIO", "stop_name": "Sovereign", "stop_lat": -1.169498, "stop_lon": 36.700194, "location_type": null, "parent_station": null, "poi_count_500m": 0 }, "geometry": { "type": "Point", "coordinates": [ 36.700194, -1.169498 ] } },
{ "type": "Feature", "properties": { "stop_id": "0100ESN", "stop_name": "Dispensary", "stop_lat": -1.190205, "stop_lon": 36.739137, "location_type": null, "parent_station": null, "poi_count_500m": 0 }, "geometry": { "type": "Point", "coordinates": [ 36.739137, -1.190205 ] } },
{ "type": "Feature", "properties": { "stop_id": "0100GAO", "stop_name": "Kahigo", "stop_lat": -1.203959, "stop_lon": 36.773405, "location_type": null, "parent_station": null, "poi_count_500m": 6 }, "geometry": { "type": "Point", "coordinates": [ 36.773405, -1.203959 ] } },
{ "type": "Feature", "properties": { "stop_id": "0100GUG", "stop_name": "Guango", "stop_lat": -1.195629, "stop_lon": 36.780871, "location_type": null, "parent_station": null, "poi_count_500m": 4 }, "geometry": { "type": "Point", "coordinates": [ 36.780871, -1.195629 ] } },
{ "type": "Feature", "properties": { "stop_id": "0100GVS", "stop_name": "Green Valley School", "stop_lat": -1.124978, "stop_lon": 36.677156, "location_type": null, "parent_station": null, "poi_count_500m": 20 }, "geometry": { "type": "Point", "coordinates": [ 36.677156, -1.124978 ] } },
{ "type": "Feature", "properties": { "stop_id": "0100HYD", "stop_name": "Shady", "stop_lat": -1.193876, "stop_lon": 36.749756, "location_type": null, "parent_station": null, "poi_count_500m": 0 }, "geometry": { "type": "Point", "coordinates": [ 36.749756, -1.193876 ] } },
{ "type": "Feature", "properties": { "stop_id": "0100IKW", "stop_name": "Kwa Viti", "stop_lat": -1.186262, "stop_lon": 36.734438, "location_type": null, "parent_station": null, "poi_count_500m": 0 }, "geometry": { "type": "Point", "coordinates": [ 36.734438, -1.186262 ] } },
{ "type": "Feature", "properties": { "stop_id": "0100ILL", "stop_name": "Milele", "stop_lat": -1.204421, "stop_lon": 36.77496, "location_type": null, "parent_station": null, "poi_count_500m": 12 }, "geometry": { "type": "Point", "coordinates": [ 36.77496, -1.204421 ] } },
{ "type": "Feature", "properties": { "stop_id": "0100INT", "stop_name": "Nish Raaj Estate", "stop_lat": -1.257623, "stop_lon": 36.812493, "location_type": null, "parent_station": null, "poi_count_500m": 98 }, "geometry": { "type": "Point", "coordinates": [ 36.812493, -1.257623 ] } },
{ "type": "Feature", "properties": { "stop_id": "0100ITS", "stop_name": "Gwaiti", "stop_lat": -1.186867, "stop_lon": 36.735148, "location_type": null, "parent_station": null, "poi_count_500m": 0 }, "geometry": { "type": "Point", "coordinates": [ 36.735148, -1.186867 ] } },
{ "type": "Feature", "properties": { "stop_id": "0100JAK", "stop_name": "Jakai", "stop_lat": -1.219687, "stop_lon": 36.77222, "location_type": null, "parent_station": null, "poi_count_500m": 14 }, "geometry": { "type": "Point", "coordinates": [ 36.77222, -1.219687 ] } },
{ "type": "Feature", "properties": { "stop_id": "0100JO.", "stop_name": "O.J", "stop_lat": -1.152971, "stop_lon": 36.920232, "location_type": null, "parent_station": null, "poi_count_500m": 0 }, "geometry": { "type": "Point", "coordinates": [ 36.920232, -1.152971 ] } },
{ "type": "Feature", "properties": { "stop_id": "0100JOA", "stop_name": "Kianjogu", "stop_lat": -1.183204, "stop_lon": 36.730275, "location_type": null, "parent_station": null, "poi_count_500m": 0 }, "geometry": { "type": "Point", "coordinates": [ 36.730275, -1.183204 ] } },
{ "type": "Feature", "properties": { "stop_id": "0100JYL", "stop_name": "Joyland", "stop_lat": -1.204897, "stop_lon": 36.776615, "location_type": null, "parent_station": null, "poi_count_500m": 12 }, "geometry": { "type": "Point", "coordinates": [ 36.776615, -1.204897 ] } },
{ "type": "Feature", "properties": { "stop_id": "0100KCK", "stop_name": "Kenchic", "stop_lat": -1.132722, "stop_lon": 36.69801, "location_type": null, "parent_station": null, "poi_count_500m": 2 }, "geometry": { "type": "Point", "coordinates": [ 36.69801, -1.132722 ] } },
{ "type": "Feature", "properties": { "stop_id": "0100KHR", "stop_name": "Kahawa Railways Roundabout", "stop_lat": -1.186098, "stop_lon": 36.906817, "location_type": null, "parent_station": null, "poi_count_500m": 4 }, "geometry": { "type": "Point", "coordinates": [ 36.906817, -1.186098 ] } },
{ "type": "Feature", "properties": { "stop_id": "0100KMU", "stop_name": "Kwa Sukuma", "stop_lat": -1.179068, "stop_lon": 36.724052, "location_type": null, "parent_station": null, "poi_count_500m": 2 }, "geometry": { "type": "Point", "coordinates": [ 36.724052, -1.179068 ] } },
{ "type": "Feature", "properties": { "stop_id": "0100KNA", "stop_name": "Kona", "stop_lat": -1.221391, "stop_lon": 36.779214, "location_type": null, "parent_station": null, "poi_count_500m": 18 }, "geometry": { "type": "Point", "coordinates": [ 36.779214, -1.221391 ] } },
{ "type": "Feature", "properties": { "stop_id": "0100KNE", "stop_name": "Kwa Njenga", "stop_lat": -1.220364, "stop_lon": 36.778455, "location_type": null, "parent_station": null, "poi_count_500m": 18 }, "geometry": { "type": "Point", "coordinates": [ 36.778455, -1.220364 ] } },
{ "type": "Feature", "properties": { "stop_id": "0100KSS", "stop_name": "Kwa Shule/Seth Home Of Love Children's Home/Muchatha Dispensary", "stop_lat": -1.189608, "stop_lon": 36.773253, "location_type": null, "parent_station": null, "poi_count_500m": 12 }, "geometry": { "type": "Point", "coordinates": [ 36.773253, -1.189608 ] } },
{ "type": "Feature", "properties": { "stop_id": "0100KTC", "stop_name": "Quickmart", "stop_lat": -1.20672, "stop_lon": 36.783439, "location_type": null, "parent_station": null, "poi_count_500m": 30 }, "geometry": { "type": "Point", "coordinates": [ 36.783439, -1.20672 ] } },
{ "type": "Feature", "properties": { "stop_id": "0100KWH", "stop_name": "Kwa Chief", "stop_lat": -1.216485, "stop_lon": 36.821754, "location_type": null, "parent_station": null, "poi_count_500m": 28 }, "geometry": { "type": "Point", "coordinates": [ 36.821754, -1.216485 ] } },
{ "type": "Feature", "properties": { "stop_id": "0100LDL", "stop_name": "Redhill", "stop_lat": -1.169992, "stop_lon": 36.701473, "location_type": null, "parent_station": null, "poi_count_500m": 2 }, "geometry": { "type": "Point", "coordinates": [ 36.701473, -1.169992 ] } },
{ "type": "Feature", "properties": { "stop_id": "0100LHH", "stop_name": "Jamhuri School", "stop_lat": -1.272504, "stop_lon": 36.822575, "location_type": null, "parent_station": null, "poi_count_500m": 1920 }, "geometry": { "type": "Point", "coordinates": [ 36.822575, -1.272504 ] } },
{ "type": "Feature", "properties": { "stop_id": "0100LIK", "stop_name": "Likoni", "stop_lat": -1.179095, "stop_lon": 36.760938, "location_type": null, "parent_station": null, "poi_count_500m": 8 }, "geometry": { "type": "Point", "coordinates": [ 36.760938, -1.179095 ] } },
{ "type": "Feature", "properties": { "stop_id": "0100LMC", "stop_name": "Limuru Catering", "stop_lat": -1.124471, "stop_lon": 36.679689, "location_type": null, "parent_station": null, "poi_count_500m": 2 }, "geometry": { "type": "Point", "coordinates": [ 36.679689, -1.124471 ] } },
{ "type": "Feature", "properties": { "stop_id": "0100LPS", "stop_name": "Limuru Post Office", "stop_lat": -1.118464, "stop_lon": 36.643126, "location_type": null, "parent_station": null, "poi_count_500m": 0 }, "geometry": { "type": "Point", "coordinates": [ 36.643126, -1.118464 ] } },
{ "type": "Feature", "properties": { "stop_id": "0100LSM", "stop_name": "Life Sanctuary/Muchatha", "stop_lat": -1.191495, "stop_lon": 36.775223, "location_type": null, "parent_station": null, "poi_count_500m": 12 }, "geometry": { "type": "Point", "coordinates": [ 36.775223, -1.191495 ] } },
{ "type": "Feature", "properties": { "stop_id": "0100..M", "stop_name": "K.M.", "stop_lat": -1.167727, "stop_lon": 36.919008, "location_type": null, "parent_station": null, "poi_count_500m": 2 }, "geometry": { "type": "Point", "coordinates": [ 36.919008, -1.167727 ] } },
{ "type": "Feature", "properties": { "stop_id": "0100MCO", "stop_name": "Stima Sacco", "stop_lat": -1.272774, "stop_lon": 36.820861, "location_type": null, "parent_station": null, "poi_count_500m": 2030 }, "geometry": { "type": "Point", "coordinates": [ 36.820861, -1.272774 ] } },
{ "type": "Feature", "properties": { "stop_id": "0100MCY", "stop_name": "Mothers Mercys/GD", "stop_lat": -1.179957, "stop_lon": 36.725401, "location_type": null, "parent_station": null, "poi_count_500m": 2 }, "geometry": { "type": "Point", "coordinates": [ 36.725401, -1.179957 ] } },
{ "type": "Feature", "properties": { "stop_id": "0100MFB", "stop_name": "Mifereji/God's Ability", "stop_lat": -1.20213, "stop_lon": 36.76693, "location_type": null, "parent_station": null, "poi_count_500m": 8 }, "geometry": { "type": "Point", "coordinates": [ 36.76693, -1.20213 ] } },
{ "type": "Feature", "properties": { "stop_id": "0100MIS", "stop_name": "Mary Immaculate Secondary School/Muchatha", "stop_lat": -1.190679, "stop_lon": 36.774297, "location_type": null, "parent_station": null, "poi_count_500m": 16 }, "geometry": { "type": "Point", "coordinates": [ 36.774297, -1.190679 ] } },
{ "type": "Feature", "properties": { "stop_id": "0100MOM", "stop_name": "Mombasa", "stop_lat": -1.17786, "stop_lon": 36.760345, "location_type": null, "parent_station": null, "poi_count_500m": 8 }, "geometry": { "type": "Point", "coordinates": [ 36.760345, -1.17786 ] } },
{ "type": "Feature", "properties": { "stop_id": "0100MOU", "stop_name": "Mugumo", "stop_lat": -1.209636, "stop_lon": 36.799865, "location_type": null, "parent_station": null, "poi_count_500m": 14 }, "geometry": { "type": "Point", "coordinates": [ 36.799865, -1.209636 ] } },
{ "type": "Feature", "properties": { "stop_id": "0100MRB", "stop_name": "Maramba Tea Factory", "stop_lat": -1.134476, "stop_lon": 36.703498, "location_type": null, "parent_station": null, "poi_count_500m": 0 }, "geometry": { "type": "Point", "coordinates": [ 36.703498, -1.134476 ] } },
{ "type": "Feature", "properties": { "stop_id": "0100MRC", "stop_name": "Movers/Rosslyn Centre", "stop_lat": -1.210948, "stop_lon": 36.790209, "location_type": null, "parent_station": null, "poi_count_500m": 48 }, "geometry": { "type": "Point", "coordinates": [ 36.790209, -1.210948 ] } },
{ "type": "Feature", "properties": { "stop_id": "0100NAM", "stop_name": "National Oil/Muchatha", "stop_lat": -1.193428, "stop_lon": 36.777892, "location_type": null, "parent_station": null, "poi_count_500m": 8 }, "geometry": { "type": "Point", "coordinates": [ 36.777892, -1.193428 ] } },
{ "type": "Feature", "properties": { "stop_id": "0100NCE", "stop_name": "Container", "stop_lat": -1.204523, "stop_lon": 36.77554, "location_type": null, "parent_station": null, "poi_count_500m": 12 }, "geometry": { "type": "Point", "coordinates": [ 36.77554, -1.204523 ] } },
{ "type": "Feature", "properties": { "stop_id": "0100NDT", "stop_name": "Ndenderu Junction", "stop_lat": -1.19233, "stop_lon": 36.7437, "location_type": null, "parent_station": null, "poi_count_500m": 12 }, "geometry": { "type": "Point", "coordinates": [ 36.7437, -1.19233 ] } },
{ "type": "Feature", "properties": { "stop_id": "0100NJT", "stop_name": "Kwa Njoki/Thimbigwa Ack", "stop_lat": -1.183852, "stop_lon": 36.763684, "location_type": null, "parent_station": null, "poi_count_500m": 0 }, "geometry": { "type": "Point", "coordinates": [ 36.763684, -1.183852 ] } },
{ "type": "Feature", "properties": { "stop_id": "0100NKD", "stop_name": "Ndenderu Kwa Maduka", "stop_lat": -1.19449, "stop_lon": 36.75061, "location_type": null, "parent_station": null, "poi_count_500m": 0 }, "geometry": { "type": "Point", "coordinates": [ 36.75061, -1.19449 ] } },
{ "type": "Feature", "properties": { "stop_id": "0100NMT", "stop_name": "New Muthaiga", "stop_lat": -1.228621, "stop_lon": 36.798616, "location_type": null, "parent_station": null, "poi_count_500m": 40 }, "geometry": { "type": "Point", "coordinates": [ 36.798616, -1.228621 ] } },
{ "type": "Feature", "properties": { "stop_id": "0100NRP", "stop_name": "Round About Eastern Bypass", "stop_lat": -1.155235, "stop_lon": 36.926119, "location_type": null, "parent_station": null, "poi_count_500m": 3 }, "geometry": { "type": "Point", "coordinates": [ 36.926119, -1.155235 ] } },
{ "type": "Feature", "properties": { "stop_id": "0100NSO", "stop_name": "Movers", "stop_lat": -1.210059, "stop_lon": 36.789171, "location_type": null, "parent_station": null, "poi_count_500m": 12 }, "geometry": { "type": "Point", "coordinates": [ 36.789171, -1.210059 ] } },
{ "type": "Feature", "properties": { "stop_id": "0100ONO", "stop_name": "Ngomongo", "stop_lat": -1.202822, "stop_lon": 36.890145, "location_type": null, "parent_station": null, "poi_count_500m": 0 }, "geometry": { "type": "Point", "coordinates": [ 36.890145, -1.202822 ] } },
{ "type": "Feature", "properties": { "stop_id": "0100OOA", "stop_name": "Kwa Soko", "stop_lat": -1.149789, "stop_lon": 36.948829, "location_type": null, "parent_station": null, "poi_count_500m": 29 }, "geometry": { "type": "Point", "coordinates": [ 36.948829, -1.149789 ] } },
{ "type": "Feature", "properties": { "stop_id": "0100OTN", "stop_name": "Hilton", "stop_lat": -1.150637, "stop_lon": 36.94259, "location_type": null, "parent_station": null, "poi_count_500m": 3 }, "geometry": { "type": "Point", "coordinates": [ 36.94259, -1.150637 ] } },
{ "type": "Feature", "properties": { "stop_id": "0100OTS", "stop_name": "Posta", "stop_lat": -1.170669, "stop_lon": 36.708026, "location_type": null, "parent_station": null, "poi_count_500m": 2 }, "geometry": { "type": "Point", "coordinates": [ 36.708026, -1.170669 ] } },
{ "type": "Feature", "properties": { "stop_id": "0100PEF", "stop_name": "Pefa/All Nations/Muchatha", "stop_lat": -1.197129, "stop_lon": 36.782933, "location_type": null, "parent_station": null, "poi_count_500m": 0 }, "geometry": { "type": "Point", "coordinates": [ 36.782933, -1.197129 ] } },
{ "type": "Feature", "properties": { "stop_id": "0100PNA", "stop_name": "Amani Plaza", "stop_lat": -1.259626, "stop_lon": 36.817136, "location_type": null, "parent_station": null, "poi_count_500m": 130 }, "geometry": { "type": "Point", "coordinates": [ 36.817136, -1.259626 ] } },
{ "type": "Feature", "properties": { "stop_id": "0100POA", "stop_name": "Pa Mutoori", "stop_lat": -1.202194, "stop_lon": 36.767171, "location_type": null, "parent_station": null, "poi_count_500m": 8 }, "geometry": { "type": "Point", "coordinates": [ 36.767171, -1.202194 ] } },
{ "type": "Feature", "properties": { "stop_id": "0100POW", "stop_name": "Power", "stop_lat": -1.21731, "stop_lon": 36.778253, "location_type": null, "parent_station": null, "poi_count_500m": 10 }, "geometry": { "type": "Point", "coordinates": [ 36.778253, -1.21731 ] } },
{ "type": "Feature", "properties": { "stop_id": "0100PSA", "stop_name": "La Philla Carwash", "stop_lat": -1.190634, "stop_lon": 36.906088, "location_type": null, "parent_station": null, "poi_count_500m": 2 }, "geometry": { "type": "Point", "coordinates": [ 36.906088, -1.190634 ] } },
{ "type": "Feature", "properties": { "stop_id": "0100RBJ", "stop_name": "Ruaka/Banana Junction/Tuskys Supermarket", "stop_lat": -1.20722, "stop_lon": 36.78602, "location_type": null, "parent_station": null, "poi_count_500m": 24 }, "geometry": { "type": "Point", "coordinates": [ 36.78602, -1.20722 ] } },
{ "type": "Feature", "properties": { "stop_id": "0100RCN", "stop_name": "Ruaka Catholic Church Entrance", "stop_lat": -1.20614, "stop_lon": 36.78059, "location_type": null, "parent_station": null, "poi_count_500m": 24 }, "geometry": { "type": "Point", "coordinates": [ 36.78059, -1.20614 ] } },
{ "type": "Feature", "properties": { "stop_id": "0100REE", "stop_name": "PCEA Ndenderu", "stop_lat": -1.195537, "stop_lon": 36.75203, "location_type": null, "parent_station": null, "poi_count_500m": 0 }, "geometry": { "type": "Point", "coordinates": [ 36.75203, -1.195537 ] } },
{ "type": "Feature", "properties": { "stop_id": "0100RES", "stop_name": "Runda Estate Entrance", "stop_lat": -1.21873, "stop_lon": 36.80177, "location_type": null, "parent_station": null, "poi_count_500m": 40 }, "geometry": { "type": "Point", "coordinates": [ 36.80177, -1.21873 ] } },
{ "type": "Feature", "properties": { "stop_id": "0100RGH", "stop_name": "Jamhuri High School", "stop_lat": -1.272204, "stop_lon": 36.822395, "location_type": null, "parent_station": null, "poi_count_500m": 1817 }, "geometry": { "type": "Point", "coordinates": [ 36.822395, -1.272204 ] } },
{ "type": "Feature", "properties": { "stop_id": "0100RJI", "stop_name": "Ruiru Road Junction", "stop_lat": -1.152105, "stop_lon": 36.919942, "location_type": null, "parent_station": null, "poi_count_500m": 0 }, "geometry": { "type": "Point", "coordinates": [ 36.919942, -1.152105 ] } },
{ "type": "Feature", "properties": { "stop_id": "0100RKH", "stop_name": "Runda/Karura Carwash", "stop_lat": -1.22091, "stop_lon": 36.80144, "location_type": null, "parent_station": null, "poi_count_500m": 20 }, "geometry": { "type": "Point", "coordinates": [ 36.80144, -1.22091 ] } },
{ "type": "Feature", "properties": { "stop_id": "0100RRD", "stop_name": "Ruaka Redeemed Gospel Church", "stop_lat": -1.20651, "stop_lon": 36.78206, "location_type": null, "parent_station": null, "poi_count_500m": 30 }, "geometry": { "type": "Point", "coordinates": [ 36.78206, -1.20651 ] } },
{ "type": "Feature", "properties": { "stop_id": "0100RRJ", "stop_name": "Redhill Road Junction", "stop_lat": -1.23398, "stop_lon": 36.80339, "location_type": null, "parent_station": null, "poi_count_500m": 295 }, "geometry": { "type": "Point", "coordinates": [ 36.80339, -1.23398 ] } },
{ "type": "Feature", "properties": { "stop_id": "0100RRP", "stop_name": "Rosslyn Road/Karura Community Chapel", "stop_lat": -1.216398, "stop_lon": 36.799275, "location_type": null, "parent_station": null, "poi_count_500m": 40 }, "geometry": { "type": "Point", "coordinates": [ 36.799275, -1.216398 ] } },
{ "type": "Feature", "properties": { "stop_id": "0100RUD", "stop_name": "Runda Road", "stop_lat": -1.215553, "stop_lon": 36.814957, "location_type": null, "parent_station": null, "poi_count_500m": 6 }, "geometry": { "type": "Point", "coordinates": [ 36.814957, -1.215553 ] } },
{ "type": "Feature", "properties": { "stop_id": "0100RUI", "stop_name": "Marurui/JuaKali", "stop_lat": -1.211282, "stop_lon": 36.874438, "location_type": null, "parent_station": null, "poi_count_500m": 4 }, "geometry": { "type": "Point", "coordinates": [ 36.874438, -1.211282 ] } },
{ "type": "Feature", "properties": { "stop_id": "0100RYA", "stop_name": "Rumenye", "stop_lat": -1.199645, "stop_lon": 36.758151, "location_type": null, "parent_station": null, "poi_count_500m": 0 }, "geometry": { "type": "Point", "coordinates": [ 36.758151, -1.199645 ] } },
{ "type": "Feature", "properties": { "stop_id": "0100SAR", "stop_name": "Car Wash", "stop_lat": -1.217006, "stop_lon": 36.777211, "location_type": null, "parent_station": null, "poi_count_500m": 8 }, "geometry": { "type": "Point", "coordinates": [ 36.777211, -1.217006 ] } },
{ "type": "Feature", "properties": { "stop_id": "0100SHT", "stop_name": "Sacred Heart", "stop_lat": -1.186278, "stop_lon": 36.767456, "location_type": null, "parent_station": null, "poi_count_500m": 4 }, "geometry": { "type": "Point", "coordinates": [ 36.767456, -1.186278 ] } },
{ "type": "Feature", "properties": { "stop_id": "0100SKU", "stop_name": "Kibutu Stage", "stop_lat": -1.188274, "stop_lon": 36.771318, "location_type": null, "parent_station": null, "poi_count_500m": 16 }, "geometry": { "type": "Point", "coordinates": [ 36.771318, -1.188274 ] } },
{ "type": "Feature", "properties": { "stop_id": "0100SLG", "stop_name": "Slaughter/Bypass", "stop_lat": -1.20578, "stop_lon": 36.78005, "location_type": null, "parent_station": null, "poi_count_500m": 24 }, "geometry": { "type": "Point", "coordinates": [ 36.78005, -1.20578 ] } },
{ "type": "Feature", "properties": { "stop_id": "0100SNW", "stop_name": "Good News/Nyari Gate 2", "stop_lat": -1.22548, "stop_lon": 36.791518, "location_type": null, "parent_station": null, "poi_count_500m": 2 }, "geometry": { "type": "Point", "coordinates": [ 36.791518, -1.22548 ] } },
{ "type": "Feature", "properties": { "stop_id": "0100S/R", "stop_name": "Rosslyn Road/Riviera", "stop_lat": -1.217129, "stop_lon": 36.800431, "location_type": null, "parent_station": null, "poi_count_500m": 40 }, "geometry": { "type": "Point", "coordinates": [ 36.800431, -1.217129 ] } },
{ "type": "Feature", "properties": { "stop_id": "0100STI", "stop_name": "Site", "stop_lat": -1.178033, "stop_lon": 36.722459, "location_type": null, "parent_station": null, "poi_count_500m": 2 }, "geometry": { "type": "Point", "coordinates": [ 36.722459, -1.178033 ] } },
{ "type": "Feature", "properties": { "stop_id": "0100T1I", "stop_name": "Barrier 1/Nyari Gate 1", "stop_lat": -1.226569, "stop_lon": 36.795694, "location_type": null, "parent_station": null, "poi_count_500m": 0 }, "geometry": { "type": "Point", "coordinates": [ 36.795694, -1.226569 ] } },
{ "type": "Feature", "properties": { "stop_id": "0100TCP", "stop_name": "Total/City Park", "stop_lat": -1.25943, "stop_lon": 36.82673, "location_type": null, "parent_station": null, "poi_count_500m": 210 }, "geometry": { "type": "Point", "coordinates": [ 36.82673, -1.25943 ] } },
{ "type": "Feature", "properties": { "stop_id": "0100TIG", "stop_name": "Tigoni", "stop_lat": -1.126686, "stop_lon": 36.671788, "location_type": null, "parent_station": null, "poi_count_500m": 8 }, "geometry": { "type": "Point", "coordinates": [ 36.671788, -1.126686 ] } },
{ "type": "Feature", "properties": { "stop_id": "0100TOR", "stop_name": "Metro", "stop_lat": -1.215183, "stop_lon": 36.859565, "location_type": null, "parent_station": null, "poi_count_500m": 2 }, "geometry": { "type": "Point", "coordinates": [ 36.859565, -1.215183 ] } },
{ "type": "Feature", "properties": { "stop_id": "0100TPS", "stop_name": "Post", "stop_lat": -1.149687, "stop_lon": 36.945525, "location_type": null, "parent_station": null, "poi_count_500m": 9 }, "geometry": { "type": "Point", "coordinates": [ 36.945525, -1.149687 ] } },
{ "type": "Feature", "properties": { "stop_id": "0100TTM", "stop_name": "Total/Muchatha", "stop_lat": -1.193078, "stop_lon": 36.777371, "location_type": null, "parent_station": null, "poi_count_500m": 8 }, "geometry": { "type": "Point", "coordinates": [ 36.777371, -1.193078 ] } },
{ "type": "Feature", "properties": { "stop_id": "0100UBP", "stop_name": "Bumps", "stop_lat": -1.206464, "stop_lon": 36.781838, "location_type": null, "parent_station": null, "poi_count_500m": 30 }, "geometry": { "type": "Point", "coordinates": [ 36.781838, -1.206464 ] } },
{ "type": "Feature", "properties": { "stop_id": "0100UEA", "stop_name": "Delta Petrol Station Ruaka/Border", "stop_lat": -1.208793, "stop_lon": 36.787926, "location_type": null, "parent_station": null, "poi_count_500m": 12 }, "geometry": { "type": "Point", "coordinates": [ 36.787926, -1.208793 ] } },
{ "type": "Feature", "properties": { "stop_id": "0100UMA", "stop_name": "Munata", "stop_lat": -1.220374, "stop_lon": 36.768392, "location_type": null, "parent_station": null, "poi_count_500m": 11 }, "geometry": { "type": "Point", "coordinates": [ 36.768392, -1.220374 ] } },
{ "type": "Feature", "properties": { "stop_id": "0100UMT", "stop_name": "Makutano", "stop_lat": -1.192345, "stop_lon": 36.745231, "location_type": null, "parent_station": null, "poi_count_500m": 12 }, "geometry": { "type": "Point", "coordinates": [ 36.745231, -1.192345 ] } },
{ "type": "Feature", "properties": { "stop_id": "0100VDA", "stop_name": "Victory Gospel/Sda", "stop_lat": -1.19432, "stop_lon": 36.7429, "location_type": null, "parent_station": null, "poi_count_500m": 12 }, "geometry": { "type": "Point", "coordinates": [ 36.7429, -1.19432 ] } },
{ "type": "Feature", "properties": { "stop_id": "0100VEV", "stop_name": "Velvet Lounge/Kigwaru", "stop_lat": -1.202782, "stop_lon": 36.785553, "location_type": null, "parent_station": null, "poi_count_500m": 0 }, "geometry": { "type": "Point", "coordinates": [ 36.785553, -1.202782 ] } },
{ "type": "Feature", "properties": { "stop_id": "0100VIN", "stop_name": "Victory Inn", "stop_lat": -1.181773, "stop_lon": 36.762476, "location_type": null, "parent_station": null, "poi_count_500m": 4 }, "geometry": { "type": "Point", "coordinates": [ 36.762476, -1.181773 ] } },
{ "type": "Feature", "properties": { "stop_id": "0100VLU", "stop_name": "6th Parklands Avenue/Regal House/Kobil", "stop_lat": -1.257893, "stop_lon": 36.826952, "location_type": null, "parent_station": null, "poi_count_500m": 172 }, "geometry": { "type": "Point", "coordinates": [ 36.826952, -1.257893 ] } },
{ "type": "Feature", "properties": { "stop_id": "0100WSI", "stop_name": "Nyari West", "stop_lat": -1.225469, "stop_lon": 36.785949, "location_type": null, "parent_station": null, "poi_count_500m": 4 }, "geometry": { "type": "Point", "coordinates": [ 36.785949, -1.225469 ] } },
{ "type": "Feature", "properties": { "stop_id": "0100XAM", "stop_name": "Maxx", "stop_lat": -1.182003, "stop_lon": 36.728585, "location_type": null, "parent_station": null, "poi_count_500m": 0 }, "geometry": { "type": "Point", "coordinates": [ 36.728585, -1.182003 ] } },
{ "type": "Feature", "properties": { "stop_id": "0101AGA", "stop_name": "Aga Khan Academy", "stop_lat": -1.26628, "stop_lon": 36.82331, "location_type": null, "parent_station": null, "poi_count_500m": 494 }, "geometry": { "type": "Point", "coordinates": [ 36.82331, -1.26628 ] } },
{ "type": "Feature", "properties": { "stop_id": "0101AKE", "stop_name": "Aga Khan Entrance", "stop_lat": -1.26178, "stop_lon": 36.82224, "location_type": null, "parent_station": null, "poi_count_500m": 169 }, "geometry": { "type": "Point", "coordinates": [ 36.82224, -1.26178 ] } },
{ "type": "Feature", "properties": { "stop_id": "0101AKH", "stop_name": "Aga Khan Hospital Junction/3rd Parklands Ave", "stop_lat": -1.26288, "stop_lon": 36.8249, "location_type": null, "parent_station": null, "poi_count_500m": 207 }, "geometry": { "type": "Point", "coordinates": [ 36.8249, -1.26288 ] } },
{ "type": "Feature", "properties": { "stop_id": "0101AKN", "stop_name": "Kwa Nyama", "stop_lat": -1.20449, "stop_lon": 36.786019, "location_type": null, "parent_station": null, "poi_count_500m": 24 }, "geometry": { "type": "Point", "coordinates": [ 36.786019, -1.20449 ] } },
{ "type": "Feature", "properties": { "stop_id": "0101ALM", "stop_name": "Amani Plaza/Almond Court", "stop_lat": -1.25962, "stop_lon": 36.81717, "location_type": null, "parent_station": null, "poi_count_500m": 130 }, "geometry": { "type": "Point", "coordinates": [ 36.81717, -1.25962 ] } },
{ "type": "Feature", "properties": { "stop_id": "0101AME", "stop_name": "Ambassadors Entrance", "stop_lat": -1.19804, "stop_lon": 36.75538, "location_type": null, "parent_station": null, "poi_count_500m": 0 }, "geometry": { "type": "Point", "coordinates": [ 36.75538, -1.19804 ] } },
{ "type": "Feature", "properties": { "stop_id": "0101ARA", "stop_name": "Garage", "stop_lat": -1.222204, "stop_lon": 36.780446, "location_type": null, "parent_station": null, "poi_count_500m": 16 }, "geometry": { "type": "Point", "coordinates": [ 36.780446, -1.222204 ] } },
{ "type": "Feature", "properties": { "stop_id": "0101ARC", "stop_name": "Car Wash", "stop_lat": -1.204839, "stop_lon": 36.782516, "location_type": null, "parent_station": null, "poi_count_500m": 30 }, "geometry": { "type": "Point", "coordinates": [ 36.782516, -1.204839 ] } },
{ "type": "Feature", "properties": { "stop_id": "0101ARR", "stop_name": "Nish Raaj/Mulberry", "stop_lat": -1.257581, "stop_lon": 36.81246, "location_type": null, "parent_station": null, "poi_count_500m": 98 }, "geometry": { "type": "Point", "coordinates": [ 36.81246, -1.257581 ] } },
{ "type": "Feature", "properties": { "stop_id": "0101ARY", "stop_name": "Arya Girls' Secondary School", "stop_lat": -1.26085, "stop_lon": 36.82007, "location_type": null, "parent_station": null, "poi_count_500m": 146 }, "geometry": { "type": "Point", "coordinates": [ 36.82007, -1.26085 ] } },
{ "type": "Feature", "properties": { "stop_id": "0101BKH", "stop_name": "Bypass Stage Kiambu", "stop_lat": -1.215448, "stop_lon": 36.83521, "location_type": null, "parent_station": null, "poi_count_500m": 30 }, "geometry": { "type": "Point", "coordinates": [ 36.83521, -1.215448 ] } },
{ "type": "Feature", "properties": { "stop_id": "0101BLU", "stop_name": "Blue Kiosk Stage", "stop_lat": -1.154688, "stop_lon": 36.675681, "location_type": null, "parent_station": null, "poi_count_500m": 0 }, "geometry": { "type": "Point", "coordinates": [ 36.675681, -1.154688 ] } },
{ "type": "Feature", "properties": { "stop_id": "0101CAV", "stop_name": "Church Of Acts/Velvet Lounge", "stop_lat": -1.203525, "stop_lon": 36.785397, "location_type": null, "parent_station": null, "poi_count_500m": 24 }, "geometry": { "type": "Point", "coordinates": [ 36.785397, -1.203525 ] } },
{ "type": "Feature", "properties": { "stop_id": "0101CEF", "stop_name": "Kwa Chief", "stop_lat": -1.216448, "stop_lon": 36.821886, "location_type": null, "parent_station": null, "poi_count_500m": 26 }, "geometry": { "type": "Point", "coordinates": [ 36.821886, -1.216448 ] } },
{ "type": "Feature", "properties": { "stop_id": "0101CHC", "stop_name": "Christco Church", "stop_lat": -1.19628, "stop_lon": 36.75294, "location_type": null, "parent_station": null, "poi_count_500m": 0 }, "geometry": { "type": "Point", "coordinates": [ 36.75294, -1.19628 ] } },
{ "type": "Feature", "properties": { "stop_id": "0101CHF", "stop_name": "Sub Chief", "stop_lat": -1.219799, "stop_lon": 36.778197, "location_type": null, "parent_station": null, "poi_count_500m": 18 }, "geometry": { "type": "Point", "coordinates": [ 36.778197, -1.219799 ] } },
{ "type": "Feature", "properties": { "stop_id": "0101CPK", "stop_name": "City Park", "stop_lat": -1.26057, "stop_lon": 36.82615, "location_type": null, "parent_station": null, "poi_count_500m": 234 }, "geometry": { "type": "Point", "coordinates": [ 36.82615, -1.26057 ] } },
{ "type": "Feature", "properties": { "stop_id": "0101DGG", "stop_name": "Ridgesways Girls", "stop_lat": -1.215046, "stop_lon": 36.864683, "location_type": null, "parent_station": null, "poi_count_500m": 6 }, "geometry": { "type": "Point", "coordinates": [ 36.864683, -1.215046 ] } },
{ "type": "Feature", "properties": { "stop_id": "0101DPB", "stop_name": "Delta Petrol Station/Border", "stop_lat": -1.20918, "stop_lon": 36.7882, "location_type": null, "parent_station": null, "poi_count_500m": 12 }, "geometry": { "type": "Point", "coordinates": [ 36.7882, -1.20918 ] } },
{ "type": "Feature", "properties": { "stop_id": "0101ETA", "stop_name": "Marrieta", "stop_lat": -1.143779, "stop_lon": 36.661749, "location_type": null, "parent_station": null, "poi_count_500m": 2 }, "geometry": { "type": "Point", "coordinates": [ 36.661749, -1.143779 ] } },
{ "type": "Feature", "properties": { "stop_id": "0101FRK", "stop_name": "Furaha/Kag Ndenderu/Catholic", "stop_lat": -1.1954, "stop_lon": 36.75175, "location_type": null, "parent_station": null, "poi_count_500m": 0 }, "geometry": { "type": "Point", "coordinates": [ 36.75175, -1.1954 ] } },
{ "type": "Feature", "properties": { "stop_id": "0101GOG", "stop_name": "Guango", "stop_lat": -1.195673, "stop_lon": 36.780783, "location_type": null, "parent_station": null, "poi_count_500m": 4 }, "geometry": { "type": "Point", "coordinates": [ 36.780783, -1.195673 ] } },
{ "type": "Feature", "properties": { "stop_id": "0101GRJ", "stop_name": "Gacharage Junction", "stop_lat": -1.20041, "stop_lon": 36.76058, "location_type": null, "parent_station": null, "poi_count_500m": 4 }, "geometry": { "type": "Point", "coordinates": [ 36.76058, -1.20041 ] } },
{ "type": "Feature", "properties": { "stop_id": "0101GVS", "stop_name": "Green Valley School", "stop_lat": -1.125007, "stop_lon": 36.677194, "location_type": null, "parent_station": null, "poi_count_500m": 20 }, "geometry": { "type": "Point", "coordinates": [ 36.677194, -1.125007 ] } },
{ "type": "Feature", "properties": { "stop_id": "0101HMO", "stop_name": "Chamoka", "stop_lat": -1.218749, "stop_lon": 36.774099, "location_type": null, "parent_station": null, "poi_count_500m": 10 }, "geometry": { "type": "Point", "coordinates": [ 36.774099, -1.218749 ] } },
{ "type": "Feature", "properties": { "stop_id": "0101HUS", "stop_name": "SDA Church", "stop_lat": -1.220482, "stop_lon": 36.769727, "location_type": null, "parent_station": null, "poi_count_500m": 13 }, "geometry": { "type": "Point", "coordinates": [ 36.769727, -1.220482 ] } },
{ "type": "Feature", "properties": { "stop_id": "0101HWO", "stop_name": "Mwisho Road", "stop_lat": -1.22267, "stop_lon": 36.781277, "location_type": null, "parent_station": null, "poi_count_500m": 14 }, "geometry": { "type": "Point", "coordinates": [ 36.781277, -1.22267 ] } },
{ "type": "Feature", "properties": { "stop_id": "0101IAI", "stop_name": "Gwaiti", "stop_lat": -1.180601, "stop_lon": 36.726319, "location_type": null, "parent_station": null, "poi_count_500m": 0 }, "geometry": { "type": "Point", "coordinates": [ 36.726319, -1.180601 ] } },
{ "type": "Feature", "properties": { "stop_id": "0101IGA", "stop_name": "Kahigo", "stop_lat": -1.203357, "stop_lon": 36.77131, "location_type": null, "parent_station": null, "poi_count_500m": 0 }, "geometry": { "type": "Point", "coordinates": [ 36.77131, -1.203357 ] } },
{ "type": "Feature", "properties": { "stop_id": "0101ION", "stop_name": "Junction To Limuru Town", "stop_lat": -1.133245, "stop_lon": 36.643564, "location_type": null, "parent_station": null, "poi_count_500m": 2 }, "geometry": { "type": "Point", "coordinates": [ 36.643564, -1.133245 ] } },
{ "type": "Feature", "properties": { "stop_id": "0101IRR", "stop_name": "River", "stop_lat": -1.221823, "stop_lon": 36.779866, "location_type": null, "parent_station": null, "poi_count_500m": 20 }, "geometry": { "type": "Point", "coordinates": [ 36.779866, -1.221823 ] } },
{ "type": "Feature", "properties": { "stop_id": "0101JAK", "stop_name": "Jakai", "stop_lat": -1.219745, "stop_lon": 36.772222, "location_type": null, "parent_station": null, "poi_count_500m": 12 }, "geometry": { "type": "Point", "coordinates": [ 36.772222, -1.219745 ] } },
{ "type": "Feature", "properties": { "stop_id": "0101JHS", "stop_name": "Jamhuri High School", "stop_lat": -1.27335, "stop_lon": 36.82297, "location_type": null, "parent_station": null, "poi_count_500m": 2059 }, "geometry": { "type": "Point", "coordinates": [ 36.82297, -1.27335 ] } },
{ "type": "Feature", "properties": { "stop_id": "0101JLI", "stop_name": "Jua Kali", "stop_lat": -1.211161, "stop_lon": 36.874486, "location_type": null, "parent_station": null, "poi_count_500m": 4 }, "geometry": { "type": "Point", "coordinates": [ 36.874486, -1.211161 ] } },
{ "type": "Feature", "properties": { "stop_id": "0101KAT", "stop_name": "Kwa Njoki/Ack Thimbigwa", "stop_lat": -1.183893, "stop_lon": 36.763636, "location_type": null, "parent_station": null, "poi_count_500m": 0 }, "geometry": { "type": "Point", "coordinates": [ 36.763636, -1.183893 ] } },
{ "type": "Feature", "properties": { "stop_id": "0101KCK", "stop_name": "Kenchic", "stop_lat": -1.132763, "stop_lon": 36.697946, "location_type": null, "parent_station": null, "poi_count_500m": 2 }, "geometry": { "type": "Point", "coordinates": [ 36.697946, -1.132763 ] } },
{ "type": "Feature", "properties": { "stop_id": "0101KHR", "stop_name": "Kahawa Railways Roundabout", "stop_lat": -1.185664, "stop_lon": 36.906667, "location_type": null, "parent_station": null, "poi_count_500m": 4 }, "geometry": { "type": "Point", "coordinates": [ 36.906667, -1.185664 ] } },
{ "type": "Feature", "properties": { "stop_id": "0101KKB", "stop_name": "Kamukabi", "stop_lat": -1.222324, "stop_lon": 36.780623, "location_type": null, "parent_station": null, "poi_count_500m": 16 }, "geometry": { "type": "Point", "coordinates": [ 36.780623, -1.222324 ] } },
{ "type": "Feature", "properties": { "stop_id": "0101KME", "stop_name": "Kimera Medical Centre", "stop_lat": -1.146608, "stop_lon": 36.716753, "location_type": null, "parent_station": null, "poi_count_500m": 2 }, "geometry": { "type": "Point", "coordinates": [ 36.716753, -1.146608 ] } },
{ "type": "Feature", "properties": { "stop_id": "0101KOB", "stop_name": "Kobil/Banana", "stop_lat": -1.17466, "stop_lon": 36.759053, "location_type": null, "parent_station": null, "poi_count_500m": 4 }, "geometry": { "type": "Point", "coordinates": [ 36.759053, -1.17466 ] } },
{ "type": "Feature", "properties": { "stop_id": "0101KTO", "stop_name": "Kwa Moturi/Gachiraini", "stop_lat": -1.20202, "stop_lon": 36.7662, "location_type": null, "parent_station": null, "poi_count_500m": 8 }, "geometry": { "type": "Point", "coordinates": [ 36.7662, -1.20202 ] } },
{ "type": "Feature", "properties": { "stop_id": "0101LIK", "stop_name": "Likoni", "stop_lat": -1.178733, "stop_lon": 36.760654, "location_type": null, "parent_station": null, "poi_count_500m": 8 }, "geometry": { "type": "Point", "coordinates": [ 36.760654, -1.178733 ] } },
{ "type": "Feature", "properties": { "stop_id": "0101LMA", "stop_name": "Mlanda", "stop_lat": -1.219961, "stop_lon": 36.767389, "location_type": null, "parent_station": null, "poi_count_500m": 11 }, "geometry": { "type": "Point", "coordinates": [ 36.767389, -1.219961 ] } },
{ "type": "Feature", "properties": { "stop_id": "0101LMC", "stop_name": "Limuru Catering", "stop_lat": -1.124567, "stop_lon": 36.679518, "location_type": null, "parent_station": null, "poi_count_500m": 2 }, "geometry": { "type": "Point", "coordinates": [ 36.679518, -1.124567 ] } },
{ "type": "Feature", "properties": { "stop_id": "0101LSC", "stop_name": "Life Sanctuary Church/Muchatha Shopping Centre", "stop_lat": -1.19145, "stop_lon": 36.775071, "location_type": null, "parent_station": null, "poi_count_500m": 12 }, "geometry": { "type": "Point", "coordinates": [ 36.775071, -1.19145 ] } },
{ "type": "Feature", "properties": { "stop_id": "0101MCC", "stop_name": "Muchatha Shopping Centre", "stop_lat": -1.192055, "stop_lon": 36.775879, "location_type": null, "parent_station": null, "poi_count_500m": 12 }, "geometry": { "type": "Point", "coordinates": [ 36.775879, -1.192055 ] } },
{ "type": "Feature", "properties": { "stop_id": "0101MCY", "stop_name": "Mothers Mercys", "stop_lat": -1.180059, "stop_lon": 36.725487, "location_type": null, "parent_station": null, "poi_count_500m": 2 }, "geometry": { "type": "Point", "coordinates": [ 36.725487, -1.180059 ] } },
{ "type": "Feature", "properties": { "stop_id": "0101MDS", "stop_name": "Muchatha Dispensary/Kwa Shule/Yamongo Drive", "stop_lat": -1.189723, "stop_lon": 36.773257, "location_type": null, "parent_station": null, "poi_count_500m": 12 }, "geometry": { "type": "Point", "coordinates": [ 36.773257, -1.189723 ] } },
{ "type": "Feature", "properties": { "stop_id": "0101MIC", "stop_name": "Mary Immaculate Catholic Church/Muchatha Shopping Centre", "stop_lat": -1.190698, "stop_lon": 36.774211, "location_type": null, "parent_station": null, "poi_count_500m": 16 }, "geometry": { "type": "Point", "coordinates": [ 36.774211, -1.190698 ] } },
{ "type": "Feature", "properties": { "stop_id": "0101MIM", "stop_name": "Mimosa", "stop_lat": -1.212005, "stop_lon": 36.804767, "location_type": null, "parent_station": null, "poi_count_500m": 2 }, "geometry": { "type": "Point", "coordinates": [ 36.804767, -1.212005 ] } },
{ "type": "Feature", "properties": { "stop_id": "0101M.K", "stop_name": "K.M.", "stop_lat": -1.166178, "stop_lon": 36.919853, "location_type": null, "parent_station": null, "poi_count_500m": 0 }, "geometry": { "type": "Point", "coordinates": [ 36.919853, -1.166178 ] } },
{ "type": "Feature", "properties": { "stop_id": "0101MKB", "stop_name": "Mkulima Supermarket/Banana", "stop_lat": -1.175287, "stop_lon": 36.759291, "location_type": null, "parent_station": null, "poi_count_500m": 4 }, "geometry": { "type": "Point", "coordinates": [ 36.759291, -1.175287 ] } },
{ "type": "Feature", "properties": { "stop_id": "0101MOM", "stop_name": "Mombasa", "stop_lat": -1.177906, "stop_lon": 36.760269, "location_type": null, "parent_station": null, "poi_count_500m": 8 }, "geometry": { "type": "Point", "coordinates": [ 36.760269, -1.177906 ] } },
{ "type": "Feature", "properties": { "stop_id": "0101MRB", "stop_name": "Maramba Tea Factory", "stop_lat": -1.134492, "stop_lon": 36.703458, "location_type": null, "parent_station": null, "poi_count_500m": 0 }, "geometry": { "type": "Point", "coordinates": [ 36.703458, -1.134492 ] } },
{ "type": "Feature", "properties": { "stop_id": "0101MTH", "stop_name": "Muthaiga Junction", "stop_lat": -1.228633, "stop_lon": 36.798518, "location_type": null, "parent_station": null, "poi_count_500m": 16 }, "geometry": { "type": "Point", "coordinates": [ 36.798518, -1.228633 ] } },
{ "type": "Feature", "properties": { "stop_id": "0101MUC", "stop_name": "Redeemed/Pefa Muchatha", "stop_lat": -1.197213, "stop_lon": 36.782874, "location_type": null, "parent_station": null, "poi_count_500m": 0 }, "geometry": { "type": "Point", "coordinates": [ 36.782874, -1.197213 ] } },
{ "type": "Feature", "properties": { "stop_id": "0101NDJ", "stop_name": "Ndenderu Junction/Makutano", "stop_lat": -1.192266, "stop_lon": 36.743758, "location_type": null, "parent_station": null, "poi_count_500m": 12 }, "geometry": { "type": "Point", "coordinates": [ 36.743758, -1.192266 ] } },
{ "type": "Feature", "properties": { "stop_id": "0101N'G", "stop_name": "Kwa Ng'ang'a", "stop_lat": -1.217757, "stop_lon": 36.778144, "location_type": null, "parent_station": null, "poi_count_500m": 14 }, "geometry": { "type": "Point", "coordinates": [ 36.778144, -1.217757 ] } },
{ "type": "Feature", "properties": { "stop_id": "0101NGG", "stop_name": "Nyari Gate 3", "stop_lat": -1.225371, "stop_lon": 36.785596, "location_type": null, "parent_station": null, "poi_count_500m": 4 }, "geometry": { "type": "Point", "coordinates": [ 36.785596, -1.225371 ] } },
{ "type": "Feature", "properties": { "stop_id": "0101NJK", "stop_name": "Kwa Njoki Kamili", "stop_lat": -1.184899, "stop_lon": 36.764492, "location_type": null, "parent_station": null, "poi_count_500m": 4 }, "geometry": { "type": "Point", "coordinates": [ 36.764492, -1.184899 ] } },
{ "type": "Feature", "properties": { "stop_id": "0101NRE", "stop_name": "Nish Raaj Estate", "stop_lat": -1.25862, "stop_lon": 36.81484, "location_type": null, "parent_station": null, "poi_count_500m": 154 }, "geometry": { "type": "Point", "coordinates": [ 36.81484, -1.25862 ] } },
{ "type": "Feature", "properties": { "stop_id": "0101NRP", "stop_name": "Roundabout Eastern Bypass", "stop_lat": -1.155165, "stop_lon": 36.926129, "location_type": null, "parent_station": null, "poi_count_500m": 3 }, "geometry": { "type": "Point", "coordinates": [ 36.926129, -1.155165 ] } },
{ "type": "Feature", "properties": { "stop_id": "0101NTO", "stop_name": "Kwa Kanisa ACK/National Oil", "stop_lat": -1.193291, "stop_lon": 36.777536, "location_type": null, "parent_station": null, "poi_count_500m": 8 }, "geometry": { "type": "Point", "coordinates": [ 36.777536, -1.193291 ] } },
{ "type": "Feature", "properties": { "stop_id": "0101NYG", "stop_name": "Nyari Gate 2", "stop_lat": -1.225544, "stop_lon": 36.791386, "location_type": null, "parent_station": null, "poi_count_500m": 2 }, "geometry": { "type": "Point", "coordinates": [ 36.791386, -1.225544 ] } },
{ "type": "Feature", "properties": { "stop_id": "0101NYP", "stop_name": "Nyari Police", "stop_lat": -1.225594, "stop_lon": 36.787764, "location_type": null, "parent_station": null, "poi_count_500m": 2 }, "geometry": { "type": "Point", "coordinates": [ 36.787764, -1.225594 ] } },
{ "type": "Feature", "properties": { "stop_id": "0101NYR", "stop_name": "Nyari/Barrier 1", "stop_lat": -1.226487, "stop_lon": 36.795583, "location_type": null, "parent_station": null, "poi_count_500m": 0 }, "geometry": { "type": "Point", "coordinates": [ 36.795583, -1.226487 ] } },
{ "type": "Feature", "properties": { "stop_id": "0101OOO", "stop_name": "Githogoro", "stop_lat": -1.216517, "stop_lon": 36.825002, "location_type": null, "parent_station": null, "poi_count_500m": 26 }, "geometry": { "type": "Point", "coordinates": [ 36.825002, -1.216517 ] } },
{ "type": "Feature", "properties": { "stop_id": "0101OTA", "stop_name": "National Oil", "stop_lat": -1.193821, "stop_lon": 36.749573, "location_type": null, "parent_station": null, "poi_count_500m": 0 }, "geometry": { "type": "Point", "coordinates": [ 36.749573, -1.193821 ] } },
{ "type": "Feature", "properties": { "stop_id": "0101PMR", "stop_name": "Pm Flats/ Runda View", "stop_lat": -1.20429, "stop_lon": 36.77439, "location_type": null, "parent_station": null, "poi_count_500m": 6 }, "geometry": { "type": "Point", "coordinates": [ 36.77439, -1.20429 ] } },
{ "type": "Feature", "properties": { "stop_id": "0101PMV", "stop_name": "Pm Flats/ Runda View 2", "stop_lat": -1.20369, "stop_lon": 36.77218, "location_type": null, "parent_station": null, "poi_count_500m": 0 }, "geometry": { "type": "Point", "coordinates": [ 36.77218, -1.20369 ] } },
{ "type": "Feature", "properties": { "stop_id": "0101POW", "stop_name": "Power", "stop_lat": -1.217477, "stop_lon": 36.778214, "location_type": null, "parent_station": null, "poi_count_500m": 12 }, "geometry": { "type": "Point", "coordinates": [ 36.778214, -1.217477 ] } },
{ "type": "Feature", "properties": { "stop_id": "0101RCC", "stop_name": "Ruaka Catholic Church", "stop_lat": -1.2062, "stop_lon": 36.78055, "location_type": null, "parent_station": null, "poi_count_500m": 24 }, "geometry": { "type": "Point", "coordinates": [ 36.78055, -1.2062 ] } },
{ "type": "Feature", "properties": { "stop_id": "0101RCK", "stop_name": "Ruaka ACK Church", "stop_lat": -1.20676, "stop_lon": 36.78382, "location_type": null, "parent_station": null, "poi_count_500m": 24 }, "geometry": { "type": "Point", "coordinates": [ 36.78382, -1.20676 ] } },
{ "type": "Feature", "properties": { "stop_id": "0101RDC", "stop_name": "Ruaka DC", "stop_lat": -1.2065, "stop_lon": 36.78171, "location_type": null, "parent_station": null, "poi_count_500m": 30 }, "geometry": { "type": "Point", "coordinates": [ 36.78171, -1.2065 ] } },
{ "type": "Feature", "properties": { "stop_id": "0101RED", "stop_name": "Red Hill/Posta", "stop_lat": -1.17081, "stop_lon": 36.708554, "location_type": null, "parent_station": null, "poi_count_500m": 2 }, "geometry": { "type": "Point", "coordinates": [ 36.708554, -1.17081 ] } },
{ "type": "Feature", "properties": { "stop_id": "0101REE", "stop_name": "Runda Estate Entrance", "stop_lat": -1.2186, "stop_lon": 36.80168, "location_type": null, "parent_station": null, "poi_count_500m": 40 }, "geometry": { "type": "Point", "coordinates": [ 36.80168, -1.2186 ] } },
{ "type": "Feature", "properties": { "stop_id": "0101REN", "stop_name": "Redeemed Ndenderu", "stop_lat": -1.19238, "stop_lon": 36.74504, "location_type": null, "parent_station": null, "poi_count_500m": 12 }, "geometry": { "type": "Point", "coordinates": [ 36.74504, -1.19238 ] } },
{ "type": "Feature", "properties": { "stop_id": "0101RIE", "stop_name": "Limuru Diaries", "stop_lat": -1.125841, "stop_lon": 36.642507, "location_type": null, "parent_station": null, "poi_count_500m": 2 }, "geometry": { "type": "Point", "coordinates": [ 36.642507, -1.125841 ] } },
{ "type": "Feature", "properties": { "stop_id": "0101RIH", "stop_name": "Commissioner of Higher Education", "stop_lat": -1.227862, "stop_lon": 36.798065, "location_type": null, "parent_station": null, "poi_count_500m": 16 }, "geometry": { "type": "Point", "coordinates": [ 36.798065, -1.227862 ] } },
{ "type": "Feature", "properties": { "stop_id": "0101RJI", "stop_name": "Ruiru Road Junction", "stop_lat": -1.152135, "stop_lon": 36.91984, "location_type": null, "parent_station": null, "poi_count_500m": 0 }, "geometry": { "type": "Point", "coordinates": [ 36.91984, -1.152135 ] } },
{ "type": "Feature", "properties": { "stop_id": "0101RKJ", "stop_name": "Ruaka Junction", "stop_lat": -1.207096, "stop_lon": 36.785982, "location_type": null, "parent_station": null, "poi_count_500m": 24 }, "geometry": { "type": "Point", "coordinates": [ 36.785982, -1.207096 ] } },
{ "type": "Feature", "properties": { "stop_id": "0101RMY", "stop_name": "Rumenye", "stop_lat": -1.19961, "stop_lon": 36.75794, "location_type": null, "parent_station": null, "poi_count_500m": 0 }, "geometry": { "type": "Point", "coordinates": [ 36.75794, -1.19961 ] } },
{ "type": "Feature", "properties": { "stop_id": "0101ROK", "stop_name": "Rosslyn Road/Karura Community Chapel", "stop_lat": -1.2165, "stop_lon": 36.799307, "location_type": null, "parent_station": null, "poi_count_500m": 40 }, "geometry": { "type": "Point", "coordinates": [ 36.799307, -1.2165 ] } },
{ "type": "Feature", "properties": { "stop_id": "0101ROR", "stop_name": "Rosslyn Road/Riviera", "stop_lat": -1.217251, "stop_lon": 36.800423, "location_type": null, "parent_station": null, "poi_count_500m": 40 }, "geometry": { "type": "Point", "coordinates": [ 36.800423, -1.217251 ] } },
{ "type": "Feature", "properties": { "stop_id": "0101RSH", "stop_name": "Roslyn Heights", "stop_lat": -1.223669, "stop_lon": 36.782832, "location_type": null, "parent_station": null, "poi_count_500m": 12 }, "geometry": { "type": "Point", "coordinates": [ 36.782832, -1.223669 ] } },
{ "type": "Feature", "properties": { "stop_id": "0101RUA", "stop_name": "Marurui", "stop_lat": -1.210806, "stop_lon": 36.875181, "location_type": null, "parent_station": null, "poi_count_500m": 4 }, "geometry": { "type": "Point", "coordinates": [ 36.875181, -1.210806 ] } },
{ "type": "Feature", "properties": { "stop_id": "0101RUD", "stop_name": "Runda Road", "stop_lat": -1.215523, "stop_lon": 36.815038, "location_type": null, "parent_station": null, "poi_count_500m": 6 }, "geometry": { "type": "Point", "coordinates": [ 36.815038, -1.215523 ] } },
{ "type": "Feature", "properties": { "stop_id": "0101SDA", "stop_name": "SDA Church", "stop_lat": -1.223143, "stop_lon": 36.781961, "location_type": null, "parent_station": null, "poi_count_500m": 14 }, "geometry": { "type": "Point", "coordinates": [ 36.781961, -1.223143 ] } },
{ "type": "Feature", "properties": { "stop_id": "0101SHR", "stop_name": "Shakers/Rosslyn Gate", "stop_lat": -1.21115, "stop_lon": 36.79024, "location_type": null, "parent_station": null, "poi_count_500m": 48 }, "geometry": { "type": "Point", "coordinates": [ 36.79024, -1.21115 ] } },
{ "type": "Feature", "properties": { "stop_id": "0101SHT", "stop_name": "Sacred Heart", "stop_lat": -1.186283, "stop_lon": 36.767421, "location_type": null, "parent_station": null, "poi_count_500m": 4 }, "geometry": { "type": "Point", "coordinates": [ 36.767421, -1.186283 ] } },
{ "type": "Feature", "properties": { "stop_id": "0101SLT", "stop_name": "Slaughter", "stop_lat": -1.20523, "stop_lon": 36.77754, "location_type": null, "parent_station": null, "poi_count_500m": 12 }, "geometry": { "type": "Point", "coordinates": [ 36.77754, -1.20523 ] } },
{ "type": "Feature", "properties": { "stop_id": "0101STP", "stop_name": "Stima Plaza", "stop_lat": -1.27043, "stop_lon": 36.82048, "location_type": null, "parent_station": null, "poi_count_500m": 1009 }, "geometry": { "type": "Point", "coordinates": [ 36.82048, -1.27043 ] } },
{ "type": "Feature", "properties": { "stop_id": "0101TIG", "stop_name": "Tigoni", "stop_lat": -1.126739, "stop_lon": 36.671944, "location_type": null, "parent_station": null, "poi_count_500m": 8 }, "geometry": { "type": "Point", "coordinates": [ 36.671944, -1.126739 ] } },
{ "type": "Feature", "properties": { "stop_id": "0101VRY", "stop_name": "Victory", "stop_lat": -1.181719, "stop_lon": 36.762391, "location_type": null, "parent_station": null, "poi_count_500m": 4 }, "geometry": { "type": "Point", "coordinates": [ 36.762391, -1.181719 ] } },
{ "type": "Feature", "properties": { "stop_id": "0101WBR", "stop_name": "Wambugu Road", "stop_lat": -1.26799, "stop_lon": 36.82127, "location_type": null, "parent_station": null, "poi_count_500m": 465 }, "geometry": { "type": "Point", "coordinates": [ 36.82127, -1.26799 ] } },
{ "type": "Feature", "properties": { "stop_id": "0101WIA", "stop_name": "Kwa Kuria", "stop_lat": -1.2184, "stop_lon": 36.774652, "location_type": null, "parent_station": null, "poi_count_500m": 10 }, "geometry": { "type": "Point", "coordinates": [ 36.774652, -1.2184 ] } },
{ "type": "Feature", "properties": { "stop_id": "0101WID", "stop_name": "Windsor Advice", "stop_lat": -1.215566, "stop_lon": 36.850327, "location_type": null, "parent_station": null, "poi_count_500m": 0 }, "geometry": { "type": "Point", "coordinates": [ 36.850327, -1.215566 ] } },
{ "type": "Feature", "properties": { "stop_id": "0101YSA", "stop_name": "Nyari West", "stop_lat": -1.224194, "stop_lon": 36.783745, "location_type": null, "parent_station": null, "poi_count_500m": 6 }, "geometry": { "type": "Point", "coordinates": [ 36.783745, -1.224194 ] } },
{ "type": "Feature", "properties": { "stop_id": "0101ZAK", "stop_name": "Zakawa", "stop_lat": -1.179181, "stop_lon": 36.760914, "location_type": null, "parent_station": null, "poi_count_500m": 8 }, "geometry": { "type": "Point", "coordinates": [ 36.760914, -1.179181 ] } },
{ "type": "Feature", "properties": { "stop_id": "0102KHJ", "stop_name": "Koja", "stop_lat": -1.281428, "stop_lon": 36.822532, "location_type": 0, "parent_station": null, "poi_count_500m": 12165 }, "geometry": { "type": "Point", "coordinates": [ 36.822532, -1.281428 ] } },
{ "type": "Feature", "properties": { "stop_id": "0103MSQ", "stop_name": "Kwa Mosque/Highridge Mwisho", "stop_lat": -1.25687, "stop_lon": 36.81077, "location_type": null, "parent_station": null, "poi_count_500m": 84 }, "geometry": { "type": "Point", "coordinates": [ 36.81077, -1.25687 ] } },
{ "type": "Feature", "properties": { "stop_id": "0110AAN", "stop_name": "Oilibya/2nd Parklands Avenue", "stop_lat": -1.2642, "stop_lon": 36.824691, "location_type": null, "parent_station": null, "poi_count_500m": 389 }, "geometry": { "type": "Point", "coordinates": [ 36.824691, -1.2642 ] } },
{ "type": "Feature", "properties": { "stop_id": "0110ACG", "stop_name": "Gachie", "stop_lat": -1.181386, "stop_lon": 36.727555, "location_type": null, "parent_station": null, "poi_count_500m": 0 }, "geometry": { "type": "Point", "coordinates": [ 36.727555, -1.181386 ] } },
{ "type": "Feature", "properties": { "stop_id": "0110AEA", "stop_name": "Shell Banana", "stop_lat": -1.175848, "stop_lon": 36.75953, "location_type": null, "parent_station": null, "poi_count_500m": 4 }, "geometry": { "type": "Point", "coordinates": [ 36.75953, -1.175848 ] } },
{ "type": "Feature", "properties": { "stop_id": "0110AGK", "stop_name": "Aga Khan Academy", "stop_lat": -1.266405, "stop_lon": 36.823195, "location_type": null, "parent_station": null, "poi_count_500m": 511 }, "geometry": { "type": "Point", "coordinates": [ 36.823195, -1.266405 ] } },
{ "type": "Feature", "properties": { "stop_id": "0110AIG", "stop_name": "Gacharaini", "stop_lat": -1.201715, "stop_lon": 36.764744, "location_type": null, "parent_station": null, "poi_count_500m": 8 }, "geometry": { "type": "Point", "coordinates": [ 36.764744, -1.201715 ] } },
{ "type": "Feature", "properties": { "stop_id": "0110AOA", "stop_name": "Mwambao", "stop_lat": -1.256713, "stop_lon": 36.82633, "location_type": null, "parent_station": null, "poi_count_500m": 170 }, "geometry": { "type": "Point", "coordinates": [ 36.82633, -1.256713 ] } },
{ "type": "Feature", "properties": { "stop_id": "0110AOH", "stop_name": "Mama Shop", "stop_lat": -1.151753, "stop_lon": 36.931196, "location_type": null, "parent_station": null, "poi_count_500m": 9 }, "geometry": { "type": "Point", "coordinates": [ 36.931196, -1.151753 ] } },
{ "type": "Feature", "properties": { "stop_id": "0110APS", "stop_name": "Aga Khan Hospital Stage", "stop_lat": -1.26198, "stop_lon": 36.8227, "location_type": null, "parent_station": null, "poi_count_500m": 167 }, "geometry": { "type": "Point", "coordinates": [ 36.8227, -1.26198 ] } },
{ "type": "Feature", "properties": { "stop_id": "0110APT", "stop_name": "Aga Khan Hospital Stage 2", "stop_lat": -1.26277, "stop_lon": 36.82467, "location_type": null, "parent_station": null, "poi_count_500m": 185 }, "geometry": { "type": "Point", "coordinates": [ 36.82467, -1.26277 ] } },
{ "type": "Feature", "properties": { "stop_id": "0110ASP", "stop_name": "Stima Plaza", "stop_lat": -1.270037, "stop_lon": 36.820555, "location_type": null, "parent_station": null, "poi_count_500m": 984 }, "geometry": { "type": "Point", "coordinates": [ 36.820555, -1.270037 ] } },
{ "type": "Feature", "properties": { "stop_id": "0110AST", "stop_name": "Ambassadors Stage", "stop_lat": -1.19864, "stop_lon": 36.75634, "location_type": null, "parent_station": null, "poi_count_500m": 0 }, "geometry": { "type": "Point", "coordinates": [ 36.75634, -1.19864 ] } },
{ "type": "Feature", "properties": { "stop_id": "0110AUK", "stop_name": "Karura", "stop_lat": -1.247249, "stop_lon": 36.815776, "location_type": null, "parent_station": null, "poi_count_500m": 62 }, "geometry": { "type": "Point", "coordinates": [ 36.815776, -1.247249 ] } },
{ "type": "Feature", "properties": { "stop_id": "0110BAA", "stop_name": "Banana Terminus", "stop_lat": -1.174235, "stop_lon": 36.758765, "location_type": null, "parent_station": null, "poi_count_500m": 4 }, "geometry": { "type": "Point", "coordinates": [ 36.758765, -1.174235 ] } },
{ "type": "Feature", "properties": { "stop_id": "0110BDO", "stop_name": "Boda", "stop_lat": -1.210381, "stop_lon": 36.789584, "location_type": null, "parent_station": null, "poi_count_500m": 12 }, "geometry": { "type": "Point", "coordinates": [ 36.789584, -1.210381 ] } },
{ "type": "Feature", "properties": { "stop_id": "0110BLV", "stop_name": "6th Parklands Avenue/Regal House/Kobil", "stop_lat": -1.257905, "stop_lon": 36.826896, "location_type": null, "parent_station": null, "poi_count_500m": 172 }, "geometry": { "type": "Point", "coordinates": [ 36.826896, -1.257905 ] } },
{ "type": "Feature", "properties": { "stop_id": "0110BNI", "stop_name": "Kobil banana", "stop_lat": -1.174564, "stop_lon": 36.758993, "location_type": null, "parent_station": null, "poi_count_500m": 4 }, "geometry": { "type": "Point", "coordinates": [ 36.758993, -1.174564 ] } },
{ "type": "Feature", "properties": { "stop_id": "0110BUK", "stop_name": "Kabuku Junction Stage", "stop_lat": -1.150767, "stop_lon": 36.668272, "location_type": null, "parent_station": null, "poi_count_500m": 14 }, "geometry": { "type": "Point", "coordinates": [ 36.668272, -1.150767 ] } },
{ "type": "Feature", "properties": { "stop_id": "0110CEJ", "stop_name": "Gacharage Junction", "stop_lat": -1.20033, "stop_lon": 36.76062, "location_type": null, "parent_station": null, "poi_count_500m": 4 }, "geometry": { "type": "Point", "coordinates": [ 36.76062, -1.20033 ] } },
{ "type": "Feature", "properties": { "stop_id": "0110COH", "stop_name": "Gacharage Junction - Gachiraini Stage", "stop_lat": -1.200471, "stop_lon": 36.760595, "location_type": null, "parent_station": null, "poi_count_500m": 4 }, "geometry": { "type": "Point", "coordinates": [ 36.760595, -1.200471 ] } },
{ "type": "Feature", "properties": { "stop_id": "0110CUT", "stop_name": "Karura Community Chapel", "stop_lat": -1.215756, "stop_lon": 36.797816, "location_type": null, "parent_station": null, "poi_count_500m": 30 }, "geometry": { "type": "Point", "coordinates": [ 36.797816, -1.215756 ] } },
{ "type": "Feature", "properties": { "stop_id": "0110DAS", "stop_name": "Ridgeways Girls", "stop_lat": -1.214993, "stop_lon": 36.864388, "location_type": null, "parent_station": null, "poi_count_500m": 6 }, "geometry": { "type": "Point", "coordinates": [ 36.864388, -1.214993 ] } },
{ "type": "Feature", "properties": { "stop_id": "0110FRM", "stop_name": "Muguku Farm", "stop_lat": -1.17646, "stop_lon": 36.718384, "location_type": null, "parent_station": null, "poi_count_500m": 0 }, "geometry": { "type": "Point", "coordinates": [ 36.718384, -1.17646 ] } },
{ "type": "Feature", "properties": { "stop_id": "0110FSA", "stop_name": "Karura Forest/Belgian Embassy", "stop_lat": -1.248371, "stop_lon": 36.816591, "location_type": null, "parent_station": null, "poi_count_500m": 90 }, "geometry": { "type": "Point", "coordinates": [ 36.816591, -1.248371 ] } },
{ "type": "Feature", "properties": { "stop_id": "0110GAC", "stop_name": "Gacharage", "stop_lat": -1.192978, "stop_lon": 36.748079, "location_type": null, "parent_station": null, "poi_count_500m": 8 }, "geometry": { "type": "Point", "coordinates": [ 36.748079, -1.192978 ] } },
{ "type": "Feature", "properties": { "stop_id": "0110GTH", "stop_name": "Gathanga Stage/Kiambea", "stop_lat": -1.198999, "stop_lon": 36.78444, "location_type": null, "parent_station": null, "poi_count_500m": 0 }, "geometry": { "type": "Point", "coordinates": [ 36.78444, -1.198999 ] } },
{ "type": "Feature", "properties": { "stop_id": "0110HHH", "stop_name": "JamhurI High", "stop_lat": -1.272161, "stop_lon": 36.822256, "location_type": null, "parent_station": null, "poi_count_500m": 1817 }, "geometry": { "type": "Point", "coordinates": [ 36.822256, -1.272161 ] } },
{ "type": "Feature", "properties": { "stop_id": "0110HUN", "stop_name": "5th parklands avenue", "stop_lat": -1.260939, "stop_lon": 36.82585, "location_type": null, "parent_station": null, "poi_count_500m": 238 }, "geometry": { "type": "Point", "coordinates": [ 36.82585, -1.260939 ] } },
{ "type": "Feature", "properties": { "stop_id": "0110IDR", "stop_name": "City park drive", "stop_lat": -1.257162, "stop_lon": 36.826563, "location_type": null, "parent_station": null, "poi_count_500m": 170 }, "geometry": { "type": "Point", "coordinates": [ 36.826563, -1.257162 ] } },
{ "type": "Feature", "properties": { "stop_id": "0110ILU", "stop_name": "Limuru Terminus", "stop_lat": -1.108076, "stop_lon": 36.643393, "location_type": null, "parent_station": null, "poi_count_500m": 180 }, "geometry": { "type": "Point", "coordinates": [ 36.643393, -1.108076 ] } },
{ "type": "Feature", "properties": { "stop_id": "0110IRT", "stop_name": "Ngara", "stop_lat": -1.27419, "stop_lon": 36.823659, "location_type": 0, "parent_station": null, "poi_count_500m": 2079 }, "geometry": { "type": "Point", "coordinates": [ 36.823659, -1.27419 ] } },
{ "type": "Feature", "properties": { "stop_id": "0110ISR", "stop_name": "Ruiru Prisons", "stop_lat": -1.151871, "stop_lon": 36.929525, "location_type": null, "parent_station": null, "poi_count_500m": 9 }, "geometry": { "type": "Point", "coordinates": [ 36.929525, -1.151871 ] } },
{ "type": "Feature", "properties": { "stop_id": "0110KAU", "stop_name": "Kianjogu Stage", "stop_lat": -1.180979, "stop_lon": 36.727015, "location_type": null, "parent_station": null, "poi_count_500m": 0 }, "geometry": { "type": "Point", "coordinates": [ 36.727015, -1.180979 ] } },
{ "type": "Feature", "properties": { "stop_id": "0110KGQ", "stop_name": "Highridge/Kwa Mosque/Mwisho", "stop_lat": -1.256852, "stop_lon": 36.810736, "location_type": null, "parent_station": null, "poi_count_500m": 84 }, "geometry": { "type": "Point", "coordinates": [ 36.810736, -1.256852 ] } },
{ "type": "Feature", "properties": { "stop_id": "0110KKB", "stop_name": "Garage", "stop_lat": -1.222414, "stop_lon": 36.780964, "location_type": null, "parent_station": null, "poi_count_500m": 14 }, "geometry": { "type": "Point", "coordinates": [ 36.780964, -1.222414 ] } },
{ "type": "Feature", "properties": { "stop_id": "0110KRS", "stop_name": "Karura Stage", "stop_lat": -1.19437, "stop_lon": 36.73198, "location_type": null, "parent_station": null, "poi_count_500m": 32 }, "geometry": { "type": "Point", "coordinates": [ 36.73198, -1.19437 ] } },
{ "type": "Feature", "properties": { "stop_id": "0110KSL", "stop_name": "Nish Raaj Estate/Kusi Lane", "stop_lat": -1.25864, "stop_lon": 36.81485, "location_type": null, "parent_station": null, "poi_count_500m": 154 }, "geometry": { "type": "Point", "coordinates": [ 36.81485, -1.25864 ] } },
{ "type": "Feature", "properties": { "stop_id": "0110LAR", "stop_name": "Rosslyn Riviera", "stop_lat": -1.215369, "stop_lon": 36.796681, "location_type": null, "parent_station": null, "poi_count_500m": 66 }, "geometry": { "type": "Point", "coordinates": [ 36.796681, -1.215369 ] } },
{ "type": "Feature", "properties": { "stop_id": "0110LCM", "stop_name": "Decimal", "stop_lat": -1.203015, "stop_lon": 36.769993, "location_type": null, "parent_station": null, "poi_count_500m": 0 }, "geometry": { "type": "Point", "coordinates": [ 36.769993, -1.203015 ] } },
{ "type": "Feature", "properties": { "stop_id": "0110LHL", "stop_name": "Full Gospel Church", "stop_lat": -1.151018, "stop_lon": 36.937462, "location_type": null, "parent_station": null, "poi_count_500m": 24 }, "geometry": { "type": "Point", "coordinates": [ 36.937462, -1.151018 ] } },
{ "type": "Feature", "properties": { "stop_id": "0110LIG", "stop_name": "Kobil Gigiri", "stop_lat": -1.239216, "stop_lon": 36.811253, "location_type": null, "parent_station": null, "poi_count_500m": 238 }, "geometry": { "type": "Point", "coordinates": [ 36.811253, -1.239216 ] } },
{ "type": "Feature", "properties": { "stop_id": "0110LJA", "stop_name": "Joyland", "stop_lat": -1.204861, "stop_lon": 36.77657, "location_type": null, "parent_station": null, "poi_count_500m": 12 }, "geometry": { "type": "Point", "coordinates": [ 36.77657, -1.204861 ] } },
{ "type": "Feature", "properties": { "stop_id": "0110MKT", "stop_name": "Makutano", "stop_lat": -1.159421, "stop_lon": 36.74364, "location_type": null, "parent_station": null, "poi_count_500m": 2 }, "geometry": { "type": "Point", "coordinates": [ 36.74364, -1.159421 ] } },
{ "type": "Feature", "properties": { "stop_id": "0110MTS", "stop_name": "Muthaiga Shopping Centre", "stop_lat": -1.250537, "stop_lon": 36.819842, "location_type": null, "parent_station": null, "poi_count_500m": 110 }, "geometry": { "type": "Point", "coordinates": [ 36.819842, -1.250537 ] } },
{ "type": "Feature", "properties": { "stop_id": "0110MYA", "stop_name": "City Park Market", "stop_lat": -1.261573, "stop_lon": 36.825761, "location_type": null, "parent_station": null, "poi_count_500m": 208 }, "geometry": { "type": "Point", "coordinates": [ 36.825761, -1.261573 ] } },
{ "type": "Feature", "properties": { "stop_id": "0110NGP", "stop_name": "Ndenderu Redeemed Gospel", "stop_lat": -1.19222, "stop_lon": 36.74442, "location_type": null, "parent_station": null, "poi_count_500m": 12 }, "geometry": { "type": "Point", "coordinates": [ 36.74442, -1.19222 ] } },
{ "type": "Feature", "properties": { "stop_id": "0110NKT", "stop_name": "Nakumatt Stage", "stop_lat": -1.26018, "stop_lon": 36.81855, "location_type": null, "parent_station": null, "poi_count_500m": 152 }, "geometry": { "type": "Point", "coordinates": [ 36.81855, -1.26018 ] } },
{ "type": "Feature", "properties": { "stop_id": "0110NSG", "stop_name": "Ndenderu Stage", "stop_lat": -1.1926, "stop_lon": 36.74685, "location_type": null, "parent_station": null, "poi_count_500m": 12 }, "geometry": { "type": "Point", "coordinates": [ 36.74685, -1.1926 ] } },
{ "type": "Feature", "properties": { "stop_id": "0110OLB", "stop_name": "Blue Kiosk", "stop_lat": -1.154766, "stop_lon": 36.672943, "location_type": null, "parent_station": null, "poi_count_500m": 6 }, "geometry": { "type": "Point", "coordinates": [ 36.672943, -1.154766 ] } },
{ "type": "Feature", "properties": { "stop_id": "0110OVL", "stop_name": "3rd Parklands Avenue/Aga Kan Hospital Junction", "stop_lat": -1.263241, "stop_lon": 36.825064, "location_type": null, "parent_station": null, "poi_count_500m": 290 }, "geometry": { "type": "Point", "coordinates": [ 36.825064, -1.263241 ] } },
{ "type": "Feature", "properties": { "stop_id": "0110PBS", "stop_name": "Bypass", "stop_lat": -1.204484, "stop_lon": 36.785515, "location_type": null, "parent_station": null, "poi_count_500m": 24 }, "geometry": { "type": "Point", "coordinates": [ 36.785515, -1.204484 ] } },
{ "type": "Feature", "properties": { "stop_id": "0110PMA", "stop_name": "Stima Plaza", "stop_lat": -1.269994, "stop_lon": 36.820604, "location_type": null, "parent_station": null, "poi_count_500m": 962 }, "geometry": { "type": "Point", "coordinates": [ 36.820604, -1.269994 ] } },
{ "type": "Feature", "properties": { "stop_id": "0110PMT", "stop_name": "Pm Flats", "stop_lat": -1.20375, "stop_lon": 36.77257, "location_type": null, "parent_station": null, "poi_count_500m": 6 }, "geometry": { "type": "Point", "coordinates": [ 36.77257, -1.20375 ] } },
{ "type": "Feature", "properties": { "stop_id": "0110/PU", "stop_name": "UNEP/KTTC", "stop_lat": -1.238447, "stop_lon": 36.810417, "location_type": null, "parent_station": null, "poi_count_500m": 252 }, "geometry": { "type": "Point", "coordinates": [ 36.810417, -1.238447 ] } },
{ "type": "Feature", "properties": { "stop_id": "0110R/B", "stop_name": "Belgian Embassy/Karura", "stop_lat": -1.246905, "stop_lon": 36.815684, "location_type": null, "parent_station": null, "poi_count_500m": 42 }, "geometry": { "type": "Point", "coordinates": [ 36.815684, -1.246905 ] } },
{ "type": "Feature", "properties": { "stop_id": "0110REU", "stop_name": "Rwenu", "stop_lat": -1.194506, "stop_lon": 36.735578, "location_type": null, "parent_station": null, "poi_count_500m": 32 }, "geometry": { "type": "Point", "coordinates": [ 36.735578, -1.194506 ] } },
{ "type": "Feature", "properties": { "stop_id": "0110REV", "stop_name": "Two Rivers", "stop_lat": -1.212895, "stop_lon": 36.792424, "location_type": null, "parent_station": null, "poi_count_500m": 84 }, "geometry": { "type": "Point", "coordinates": [ 36.792424, -1.212895 ] } },
{ "type": "Feature", "properties": { "stop_id": "0110RID", "stop_name": "Windsor Advice", "stop_lat": -1.215743, "stop_lon": 36.849936, "location_type": null, "parent_station": null, "poi_count_500m": 0 }, "geometry": { "type": "Point", "coordinates": [ 36.849936, -1.215743 ] } },
{ "type": "Feature", "properties": { "stop_id": "0110RIS", "stop_name": "Two Rivers", "stop_lat": -1.211571, "stop_lon": 36.790791, "location_type": null, "parent_station": null, "poi_count_500m": 84 }, "geometry": { "type": "Point", "coordinates": [ 36.790791, -1.211571 ] } },
{ "type": "Feature", "properties": { "stop_id": "0110RNO", "stop_name": "Rossyln", "stop_lat": -1.233918, "stop_lon": 36.802096, "location_type": null, "parent_station": null, "poi_count_500m": 228 }, "geometry": { "type": "Point", "coordinates": [ 36.802096, -1.233918 ] } },
{ "type": "Feature", "properties": { "stop_id": "0110ROA", "stop_name": "Wambugu Road", "stop_lat": -1.268079, "stop_lon": 36.821239, "location_type": null, "parent_station": null, "poi_count_500m": 475 }, "geometry": { "type": "Point", "coordinates": [ 36.821239, -1.268079 ] } },
{ "type": "Feature", "properties": { "stop_id": "0110ROS", "stop_name": "Rosslyn Total", "stop_lat": -1.210406, "stop_lon": 36.789731, "location_type": null, "parent_station": null, "poi_count_500m": 12 }, "geometry": { "type": "Point", "coordinates": [ 36.789731, -1.210406 ] } },
{ "type": "Feature", "properties": { "stop_id": "0110RRS", "stop_name": "Two Rivers", "stop_lat": -1.214472, "stop_lon": 36.79486, "location_type": null, "parent_station": null, "poi_count_500m": 94 }, "geometry": { "type": "Point", "coordinates": [ 36.79486, -1.214472 ] } },
{ "type": "Feature", "properties": { "stop_id": "0110RTC", "stop_name": "Ruaka Quickmart", "stop_lat": -1.20669, "stop_lon": 36.782358, "location_type": null, "parent_station": null, "poi_count_500m": 30 }, "geometry": { "type": "Point", "coordinates": [ 36.782358, -1.20669 ] } },
{ "type": "Feature", "properties": { "stop_id": "0110RTU", "stop_name": "Kobil/Regal house/6th Parklands ave", "stop_lat": -1.25802, "stop_lon": 36.827046, "location_type": null, "parent_station": null, "poi_count_500m": 172 }, "geometry": { "type": "Point", "coordinates": [ 36.827046, -1.25802 ] } },
{ "type": "Feature", "properties": { "stop_id": "0110SAI", "stop_name": "Stima Plaza", "stop_lat": -1.272612, "stop_lon": 36.821001, "location_type": null, "parent_station": null, "poi_count_500m": 1896 }, "geometry": { "type": "Point", "coordinates": [ 36.821001, -1.272612 ] } },
{ "type": "Feature", "properties": { "stop_id": "0110SIH", "stop_name": "Gasolina/Gichagi Mwisho", "stop_lat": -1.219559, "stop_lon": 36.766718, "location_type": null, "parent_station": null, "poi_count_500m": 11 }, "geometry": { "type": "Point", "coordinates": [ 36.766718, -1.219559 ] } },
{ "type": "Feature", "properties": { "stop_id": "0110SOI", "stop_name": "Mimosa", "stop_lat": -1.212092, "stop_lon": 36.804714, "location_type": null, "parent_station": null, "poi_count_500m": 2 }, "geometry": { "type": "Point", "coordinates": [ 36.804714, -1.212092 ] } },
{ "type": "Feature", "properties": { "stop_id": "0110SPU", "stop_name": "St. Paul's University Limuru", "stop_lat": -1.147694, "stop_lon": 36.665794, "location_type": null, "parent_station": null, "poi_count_500m": 10 }, "geometry": { "type": "Point", "coordinates": [ 36.665794, -1.147694 ] } },
{ "type": "Feature", "properties": { "stop_id": "0110SRT", "stop_name": "Marurui Police Post", "stop_lat": -1.21464, "stop_lon": 36.867856, "location_type": null, "parent_station": null, "poi_count_500m": 2 }, "geometry": { "type": "Point", "coordinates": [ 36.867856, -1.21464 ] } },
{ "type": "Feature", "properties": { "stop_id": "0110SSA", "stop_name": "Canadian embassy", "stop_lat": -1.241283, "stop_lon": 36.81334, "location_type": null, "parent_station": null, "poi_count_500m": 94 }, "geometry": { "type": "Point", "coordinates": [ 36.81334, -1.241283 ] } },
{ "type": "Feature", "properties": { "stop_id": "0110TAA", "stop_name": "Stima Plaza", "stop_lat": -1.269752, "stop_lon": 36.820579, "location_type": null, "parent_station": null, "poi_count_500m": 596 }, "geometry": { "type": "Point", "coordinates": [ 36.820579, -1.269752 ] } },
{ "type": "Feature", "properties": { "stop_id": "0110TOH", "stop_name": "Githogoro", "stop_lat": -1.216534, "stop_lon": 36.825391, "location_type": null, "parent_station": null, "poi_count_500m": 20 }, "geometry": { "type": "Point", "coordinates": [ 36.825391, -1.216534 ] } },
{ "type": "Feature", "properties": { "stop_id": "0110TPA", "stop_name": "3rd Parklands Avenue/Aga Kan Hospital Junction", "stop_lat": -1.263229, "stop_lon": 36.825078, "location_type": null, "parent_station": null, "poi_count_500m": 290 }, "geometry": { "type": "Point", "coordinates": [ 36.825078, -1.263229 ] } },
{ "type": "Feature", "properties": { "stop_id": "0110TUQ", "stop_name": "Equity", "stop_lat": -1.205161, "stop_lon": 36.777734, "location_type": null, "parent_station": null, "poi_count_500m": 12 }, "geometry": { "type": "Point", "coordinates": [ 36.777734, -1.205161 ] } },
{ "type": "Feature", "properties": { "stop_id": "0110TVM", "stop_name": "Traveller's View Muchatha", "stop_lat": -1.188491, "stop_lon": 36.771639, "location_type": null, "parent_station": null, "poi_count_500m": 12 }, "geometry": { "type": "Point", "coordinates": [ 36.771639, -1.188491 ] } },
{ "type": "Feature", "properties": { "stop_id": "0110UMI", "stop_name": "Mulima", "stop_lat": -1.2204, "stop_lon": 36.76976, "location_type": null, "parent_station": null, "poi_count_500m": 13 }, "geometry": { "type": "Point", "coordinates": [ 36.76976, -1.2204 ] } },
{ "type": "Feature", "properties": { "stop_id": "0110UMK", "stop_name": "Mkulima supermarket", "stop_lat": -1.175079, "stop_lon": 36.759251, "location_type": null, "parent_station": null, "poi_count_500m": 4 }, "geometry": { "type": "Point", "coordinates": [ 36.759251, -1.175079 ] } },
{ "type": "Feature", "properties": { "stop_id": "0110UNA", "stop_name": "UNEP/KTTC", "stop_lat": -1.238033, "stop_lon": 36.80995, "location_type": null, "parent_station": null, "poi_count_500m": 252 }, "geometry": { "type": "Point", "coordinates": [ 36.80995, -1.238033 ] } },
{ "type": "Feature", "properties": { "stop_id": "0110VKS", "stop_name": "2nd Parklands Avenue", "stop_lat": -1.264835, "stop_lon": 36.824412, "location_type": null, "parent_station": null, "poi_count_500m": 377 }, "geometry": { "type": "Point", "coordinates": [ 36.824412, -1.264835 ] } },
{ "type": "Feature", "properties": { "stop_id": "0110VMT", "stop_name": "Village Market", "stop_lat": -1.23006, "stop_lon": 36.80399, "location_type": null, "parent_station": null, "poi_count_500m": 365 }, "geometry": { "type": "Point", "coordinates": [ 36.80399, -1.23006 ] } },
{ "type": "Feature", "properties": { "stop_id": "0110WAM", "stop_name": "Kwa Jeki", "stop_lat": -1.194574, "stop_lon": 36.779445, "location_type": null, "parent_station": null, "poi_count_500m": 4 }, "geometry": { "type": "Point", "coordinates": [ 36.779445, -1.194574 ] } },
{ "type": "Feature", "properties": { "stop_id": "0110WOJ", "stop_name": "Maziwa Junction", "stop_lat": -1.193992, "stop_lon": 36.904538, "location_type": null, "parent_station": null, "poi_count_500m": 2 }, "geometry": { "type": "Point", "coordinates": [ 36.904538, -1.193992 ] } },
{ "type": "Feature", "properties": { "stop_id": "0110WRS", "stop_name": "Two Rivers", "stop_lat": -1.208242, "stop_lon": 36.797284, "location_type": null, "parent_station": null, "poi_count_500m": 90 }, "geometry": { "type": "Point", "coordinates": [ 36.797284, -1.208242 ] } },
{ "type": "Feature", "properties": { "stop_id": "0110YIL", "stop_name": "OiLibya/2nd Parklands Avenue", "stop_lat": -1.264248, "stop_lon": 36.824681, "location_type": null, "parent_station": null, "poi_count_500m": 377 }, "geometry": { "type": "Point", "coordinates": [ 36.824681, -1.264248 ] } },
{ "type": "Feature", "properties": { "stop_id": "0110YSP", "stop_name": "City Park/5th Parklands Avenue", "stop_lat": -1.261085, "stop_lon": 36.826027, "location_type": null, "parent_station": null, "poi_count_500m": 206 }, "geometry": { "type": "Point", "coordinates": [ 36.826027, -1.261085 ] } },
{ "type": "Feature", "properties": { "stop_id": "01114IA", "stop_name": "44 Githurai", "stop_lat": -1.195441, "stop_lon": 36.902797, "location_type": null, "parent_station": null, "poi_count_500m": 2 }, "geometry": { "type": "Point", "coordinates": [ 36.902797, -1.195441 ] } },
{ "type": "Feature", "properties": { "stop_id": "0111A26", "stop_name": "Lane 26", "stop_lat": -1.202558, "stop_lon": 36.768097, "location_type": null, "parent_station": null, "poi_count_500m": 4 }, "geometry": { "type": "Point", "coordinates": [ 36.768097, -1.202558 ] } },
{ "type": "Feature", "properties": { "stop_id": "0111AAR", "stop_name": "Ruaka", "stop_lat": -1.207579, "stop_lon": 36.786271, "location_type": null, "parent_station": null, "poi_count_500m": 24 }, "geometry": { "type": "Point", "coordinates": [ 36.786271, -1.207579 ] } },
{ "type": "Feature", "properties": { "stop_id": "0111ACP", "stop_name": "Agha khan hospital junction/ 3rd parklands ave", "stop_lat": -1.261895, "stop_lon": 36.825378, "location_type": null, "parent_station": null, "poi_count_500m": 178 }, "geometry": { "type": "Point", "coordinates": [ 36.825378, -1.261895 ] } },
{ "type": "Feature", "properties": { "stop_id": "0111AES", "stop_name": "Rosslyn Valley", "stop_lat": -1.223201, "stop_lon": 36.802579, "location_type": null, "parent_station": null, "poi_count_500m": 20 }, "geometry": { "type": "Point", "coordinates": [ 36.802579, -1.223201 ] } },
{ "type": "Feature", "properties": { "stop_id": "0111AIT", "stop_name": "Muthaiga Mini Market", "stop_lat": -1.250233, "stop_lon": 36.820788, "location_type": null, "parent_station": null, "poi_count_500m": 100 }, "geometry": { "type": "Point", "coordinates": [ 36.820788, -1.250233 ] } },
{ "type": "Feature", "properties": { "stop_id": "0111AKA", "stop_name": "Kwa Nyaga", "stop_lat": -1.168399, "stop_lon": 36.696517, "location_type": null, "parent_station": null, "poi_count_500m": 0 }, "geometry": { "type": "Point", "coordinates": [ 36.696517, -1.168399 ] } },
{ "type": "Feature", "properties": { "stop_id": "0111AKS", "stop_name": "Aga Khan Hospital Stage", "stop_lat": -1.26237, "stop_lon": 36.82369, "location_type": null, "parent_station": null, "poi_count_500m": 189 }, "geometry": { "type": "Point", "coordinates": [ 36.82369, -1.26237 ] } },
{ "type": "Feature", "properties": { "stop_id": "0111ALA", "stop_name": "Sahala", "stop_lat": -1.206835, "stop_lon": 36.792778, "location_type": null, "parent_station": null, "poi_count_500m": 42 }, "geometry": { "type": "Point", "coordinates": [ 36.792778, -1.206835 ] } },
{ "type": "Feature", "properties": { "stop_id": "0111AMB", "stop_name": "Ambassadors Stage", "stop_lat": -1.19859, "stop_lon": 36.75619, "location_type": null, "parent_station": null, "poi_count_500m": 0 }, "geometry": { "type": "Point", "coordinates": [ 36.75619, -1.19859 ] } },
{ "type": "Feature", "properties": { "stop_id": "0111AMK", "stop_name": "Kwa Mbao", "stop_lat": -1.170485, "stop_lon": 36.705164, "location_type": null, "parent_station": null, "poi_count_500m": 2 }, "geometry": { "type": "Point", "coordinates": [ 36.705164, -1.170485 ] } },
{ "type": "Feature", "properties": { "stop_id": "0111ARD", "stop_name": "Kwa Daktari", "stop_lat": -1.18467, "stop_lon": 36.732568, "location_type": null, "parent_station": null, "poi_count_500m": 0 }, "geometry": { "type": "Point", "coordinates": [ 36.732568, -1.18467 ] } },
{ "type": "Feature", "properties": { "stop_id": "0111ATA", "stop_name": "Total City Park", "stop_lat": -1.259304, "stop_lon": 36.826738, "location_type": null, "parent_station": null, "poi_count_500m": 210 }, "geometry": { "type": "Point", "coordinates": [ 36.826738, -1.259304 ] } },
{ "type": "Feature", "properties": { "stop_id": "0111AWM", "stop_name": "Maziwa", "stop_lat": -1.193209, "stop_lon": 36.905093, "location_type": null, "parent_station": null, "poi_count_500m": 2 }, "geometry": { "type": "Point", "coordinates": [ 36.905093, -1.193209 ] } },
{ "type": "Feature", "properties": { "stop_id": "0111AXM", "stop_name": "Maxx", "stop_lat": -1.181895, "stop_lon": 36.728435, "location_type": null, "parent_station": null, "poi_count_500m": 0 }, "geometry": { "type": "Point", "coordinates": [ 36.728435, -1.181895 ] } },
{ "type": "Feature", "properties": { "stop_id": "0111AYS", "stop_name": "Gitambaya Police Post", "stop_lat": -1.149768, "stop_lon": 36.948966, "location_type": null, "parent_station": null, "poi_count_500m": 29 }, "geometry": { "type": "Point", "coordinates": [ 36.948966, -1.149768 ] } },
{ "type": "Feature", "properties": { "stop_id": "0111BAA", "stop_name": "Banana Terminus", "stop_lat": -1.174015, "stop_lon": 36.75884, "location_type": null, "parent_station": null, "poi_count_500m": 4 }, "geometry": { "type": "Point", "coordinates": [ 36.75884, -1.174015 ] } },
{ "type": "Feature", "properties": { "stop_id": "0111BAG", "stop_name": "ACK Thibigwa", "stop_lat": -1.181043, "stop_lon": 36.762086, "location_type": null, "parent_station": null, "poi_count_500m": 4 }, "geometry": { "type": "Point", "coordinates": [ 36.762086, -1.181043 ] } },
{ "type": "Feature", "properties": { "stop_id": "0111BEK", "stop_name": "Belgian Embassy/Karura", "stop_lat": -1.24701, "stop_lon": 36.8156, "location_type": null, "parent_station": null, "poi_count_500m": 42 }, "geometry": { "type": "Point", "coordinates": [ 36.8156, -1.24701 ] } },
{ "type": "Feature", "properties": { "stop_id": "0111BPY", "stop_name": "Bypass", "stop_lat": -1.205771, "stop_lon": 36.779341, "location_type": null, "parent_station": null, "poi_count_500m": 24 }, "geometry": { "type": "Point", "coordinates": [ 36.779341, -1.205771 ] } },
{ "type": "Feature", "properties": { "stop_id": "0111BUK", "stop_name": "Kabuku Stage", "stop_lat": -1.154742, "stop_lon": 36.674973, "location_type": null, "parent_station": null, "poi_count_500m": 2 }, "geometry": { "type": "Point", "coordinates": [ 36.674973, -1.154742 ] } },
{ "type": "Feature", "properties": { "stop_id": "0111CEP", "stop_name": "PCEA", "stop_lat": -1.189026, "stop_lon": 36.737536, "location_type": null, "parent_station": null, "poi_count_500m": 0 }, "geometry": { "type": "Point", "coordinates": [ 36.737536, -1.189026 ] } },
{ "type": "Feature", "properties": { "stop_id": "0111CNT", "stop_name": "Container", "stop_lat": -1.197222, "stop_lon": 36.899552, "location_type": null, "parent_station": null, "poi_count_500m": 2 }, "geometry": { "type": "Point", "coordinates": [ 36.899552, -1.197222 ] } },
{ "type": "Feature", "properties": { "stop_id": "0111CRA", "stop_name": "Car Wash", "stop_lat": -1.217108, "stop_lon": 36.777061, "location_type": null, "parent_station": null, "poi_count_500m": 10 }, "geometry": { "type": "Point", "coordinates": [ 36.777061, -1.217108 ] } },
{ "type": "Feature", "properties": { "stop_id": "0111EDH", "stop_name": "The Dam", "stop_lat": -1.170045, "stop_lon": 36.701237, "location_type": null, "parent_station": null, "poi_count_500m": 2 }, "geometry": { "type": "Point", "coordinates": [ 36.701237, -1.170045 ] } },
{ "type": "Feature", "properties": { "stop_id": "0111EED", "stop_name": "Ndenderu", "stop_lat": -1.192217, "stop_lon": 36.743563, "location_type": null, "parent_station": null, "poi_count_500m": 12 }, "geometry": { "type": "Point", "coordinates": [ 36.743563, -1.192217 ] } },
{ "type": "Feature", "properties": { "stop_id": "0111ENP", "stop_name": "Dispenser", "stop_lat": -1.190346, "stop_lon": 36.739048, "location_type": null, "parent_station": null, "poi_count_500m": 0 }, "geometry": { "type": "Point", "coordinates": [ 36.739048, -1.190346 ] } },
{ "type": "Feature", "properties": { "stop_id": "0111EYE", "stop_name": "Membley", "stop_lat": -1.156393, "stop_lon": 36.925105, "location_type": null, "parent_station": null, "poi_count_500m": 0 }, "geometry": { "type": "Point", "coordinates": [ 36.925105, -1.156393 ] } },
{ "type": "Feature", "properties": { "stop_id": "0111FRM", "stop_name": "Muguku Farm/GD", "stop_lat": -1.176554, "stop_lon": 36.718575, "location_type": null, "parent_station": null, "poi_count_500m": 0 }, "geometry": { "type": "Point", "coordinates": [ 36.718575, -1.176554 ] } },
{ "type": "Feature", "properties": { "stop_id": "0111GIE", "stop_name": "Sovereign", "stop_lat": -1.169589, "stop_lon": 36.700159, "location_type": null, "parent_station": null, "poi_count_500m": 0 }, "geometry": { "type": "Point", "coordinates": [ 36.700159, -1.169589 ] } },
{ "type": "Feature", "properties": { "stop_id": "0111GIM", "stop_name": "Muthaiga Mini Market", "stop_lat": -1.250151, "stop_lon": 36.820748, "location_type": null, "parent_station": null, "poi_count_500m": 100 }, "geometry": { "type": "Point", "coordinates": [ 36.820748, -1.250151 ] } },
{ "type": "Feature", "properties": { "stop_id": "0111HDE", "stop_name": "Shade", "stop_lat": -1.193896, "stop_lon": 36.749592, "location_type": null, "parent_station": null, "poi_count_500m": 0 }, "geometry": { "type": "Point", "coordinates": [ 36.749592, -1.193896 ] } },
{ "type": "Feature", "properties": { "stop_id": "0111HRT", "stop_name": "Mothero", "stop_lat": -1.166445, "stop_lon": 36.693617, "location_type": null, "parent_station": null, "poi_count_500m": 0 }, "geometry": { "type": "Point", "coordinates": [ 36.693617, -1.166445 ] } },
{ "type": "Feature", "properties": { "stop_id": "0111IAC", "stop_name": "Pa Machiri", "stop_lat": -1.172894, "stop_lon": 36.712057, "location_type": null, "parent_station": null, "poi_count_500m": 0 }, "geometry": { "type": "Point", "coordinates": [ 36.712057, -1.172894 ] } },
{ "type": "Feature", "properties": { "stop_id": "0111ICT", "stop_name": "Quickmart", "stop_lat": -1.206678, "stop_lon": 36.78331, "location_type": null, "parent_station": null, "poi_count_500m": 30 }, "geometry": { "type": "Point", "coordinates": [ 36.78331, -1.206678 ] } },
{ "type": "Feature", "properties": { "stop_id": "0111IGA", "stop_name": "Gacharaini", "stop_lat": -1.201394, "stop_lon": 36.763483, "location_type": null, "parent_station": null, "poi_count_500m": 8 }, "geometry": { "type": "Point", "coordinates": [ 36.763483, -1.201394 ] } },
{ "type": "Feature", "properties": { "stop_id": "0111IGK", "stop_name": "Kobil Gigiri", "stop_lat": -1.23923, "stop_lon": 36.811441, "location_type": null, "parent_station": null, "poi_count_500m": 238 }, "geometry": { "type": "Point", "coordinates": [ 36.811441, -1.23923 ] } },
{ "type": "Feature", "properties": { "stop_id": "0111IME", "stop_name": "Milele", "stop_lat": -1.201036, "stop_lon": 36.76266, "location_type": null, "parent_station": null, "poi_count_500m": 4 }, "geometry": { "type": "Point", "coordinates": [ 36.76266, -1.201036 ] } },
{ "type": "Feature", "properties": { "stop_id": "0111ISE", "stop_name": "Site", "stop_lat": -1.178182, "stop_lon": 36.722542, "location_type": null, "parent_station": null, "poi_count_500m": 2 }, "geometry": { "type": "Point", "coordinates": [ 36.722542, -1.178182 ] } },
{ "type": "Feature", "properties": { "stop_id": "0111JEK", "stop_name": "Kwa Njoki", "stop_lat": -1.194099, "stop_lon": 36.778615, "location_type": null, "parent_station": null, "poi_count_500m": 8 }, "geometry": { "type": "Point", "coordinates": [ 36.778615, -1.194099 ] } },
{ "type": "Feature", "properties": { "stop_id": "0111JM", "stop_name": "JM", "stop_lat": -1.188322, "stop_lon": 36.906381, "location_type": null, "parent_station": null, "poi_count_500m": 4 }, "geometry": { "type": "Point", "coordinates": [ 36.906381, -1.188322 ] } },
{ "type": "Feature", "properties": { "stop_id": "0111KAN", "stop_name": "Aga Khan", "stop_lat": -1.262254, "stop_lon": 36.82537, "location_type": null, "parent_station": null, "poi_count_500m": 183 }, "geometry": { "type": "Point", "coordinates": [ 36.82537, -1.262254 ] } },
{ "type": "Feature", "properties": { "stop_id": "0111KAU", "stop_name": "Kianjogu Stage", "stop_lat": -1.181209, "stop_lon": 36.727208, "location_type": null, "parent_station": null, "poi_count_500m": 0 }, "geometry": { "type": "Point", "coordinates": [ 36.727208, -1.181209 ] } },
{ "type": "Feature", "properties": { "stop_id": "0111KEA", "stop_name": "Kiambea", "stop_lat": -1.198614, "stop_lon": 36.784122, "location_type": null, "parent_station": null, "poi_count_500m": 0 }, "geometry": { "type": "Point", "coordinates": [ 36.784122, -1.198614 ] } },
{ "type": "Feature", "properties": { "stop_id": "0111KIV", "stop_name": "Kibutu Stage/Bread of Life", "stop_lat": -1.188314, "stop_lon": 36.771234, "location_type": null, "parent_station": null, "poi_count_500m": 16 }, "geometry": { "type": "Point", "coordinates": [ 36.771234, -1.188314 ] } },
{ "type": "Feature", "properties": { "stop_id": "0111KNA", "stop_name": "Kona", "stop_lat": -1.220945, "stop_lon": 36.778584, "location_type": null, "parent_station": null, "poi_count_500m": 18 }, "geometry": { "type": "Point", "coordinates": [ 36.778584, -1.220945 ] } },